customer_id,customer_name,customer_gender,cluster_ward,latitude,longitude
24099,Raymond Maicus,1,outlier,38.71681786682647,-9.183664967250587
28426,David Sheffield,1,outlier,38.7368269413239,-9.150802554878393
35858,Ethel Stevens,0,outlier,38.75997303785381,-9.166222630475689
25940,Joseph Smith,1,outlier,38.759799725071815,-9.16656626441533
14772,James Powers,1,outlier,38.7488369306645,-9.172140748203674
23287,Lucille Sutherland,0,outlier,38.76304091580855,-9.095581489246968
45010,Edward Na,1,outlier,38.73549144951144,-9.150268704607504
44224,Jacinta Mccay,0,outlier,38.76088979716328,-9.166605112664625
36846,Richard Bellew,1,outlier,38.75928019235552,-9.166913751982028
28826,Timothy Simcoe,1,outlier,38.76054958758895,-9.166715111371632
49556,Ronald Dill,1,outlier,38.7475921563092,-9.172037386400875
49044,Nicholas Reese,1,outlier,38.76296308676961,-9.095356811151133
37713,Kathleen Avila,0,outlier,38.715222492970106,-9.156370481742726
37843,James Jennings,1,outlier,38.76446061446802,-9.096188349547525
11620,Jason Penton,1,outlier,38.73690860903429,-9.149097076697933
46857,Richard Henderson,1,outlier,38.763330167408256,-9.094671825951446
46598,Gerald Postel,1,outlier,38.76310859840304,-9.0959394305381
46111,Jenna Gist,0,outlier,38.75981669457285,-9.166714643882496
3260,Mary Harpole,0,outlier,38.748165730967806,-9.172294337099364
40166,Malik No,1,outlier,38.73654077568328,-9.150470149843734
29806,Rebecca Porter,0,outlier,38.73646157482784,-9.149326963158488
43933,Kenneth Foster,1,outlier,38.76050703563501,-9.166136724210386
28221,Kim Toppa,0,outlier,38.74854241768985,-9.172314324566257
48044,Laura Smith,0,outlier,38.736727493258215,-9.148888359831238
42463,Irena Strachan,0,outlier,38.74756966224239,-9.17299170327805
47204,Aaron Steadman,1,outlier,38.76559875769508,-9.179896100768731
19793,Nicholas Floyd,1,outlier,38.75947223837485,-9.166292846053738
18756,Nancy Maldonado,0,outlier,38.76356285919964,-9.204121370918507
32855,Ricky Stanford,1,outlier,38.747296898286656,-9.172264943659956
1704,Clifford Tep,1,outlier,38.747803861542366,-9.172291285142208
18556,Michael Lewis,1,outlier,38.76041827095399,-9.16647317282601
47751,Steven Green,1,outlier,38.759964794129615,-9.167472256650608
24248,Jessie Craig,0,outlier,38.74861935574441,-9.173433344101138
29849,Melissa Neller,0,outlier,38.76405836770611,-9.095706239004793
36626,Lisa Showers,0,outlier,38.76326411857065,-9.095027310926618
41280,Lenore Johnston,0,outlier,38.73576869497448,-9.149512191708046
39697,Vanessa Mcneill,0,outlier,38.7491799311955,-9.172503055603077
25884,Michael Defranco,1,outlier,38.73679079656464,-9.149386270100187
30159,Lucille Corbett,0,outlier,38.748737429331726,-9.172142022389226
2791,Heather Foster,0,outlier,38.760215229198735,-9.167237000110529
31796,David Simmons,1,outlier,38.748058782039294,-9.172415977269292
41874,Carl Goodemote,1,outlier,38.76018718311088,-9.166004697223226
10143,Vincent Casias,1,outlier,38.76018544958338,-9.1659527510091
14411,Paul Teneyck,1,outlier,38.736436333132815,-9.150174140411997
45685,Joseph Torres,1,outlier,38.76063811119567,-9.166807919236932
25538,Brian Fenton,1,outlier,38.760435950517945,-9.167178884307669
38912,Gene Monteiro,1,outlier,38.73736752967379,-9.150710320608216
8370,Casey Williams,1,outlier,38.736421872212,-9.150714344830078
21396,Jimmy Mezzatesta,1,outlier,38.76099527115223,-9.165814787939135
9822,Joyce Sheffield,0,outlier,38.73652957593997,-9.149899183875055
18692,Shirley Mcdonald,0,outlier,38.74848799277575,-9.17389554896902
36482,Philip Hauser,1,outlier,38.73740040784876,-9.150024564882951
28766,Timothy Mcguire,1,outlier,38.76365138068219,-9.095968951196747
1231,Angel Rios,1,outlier,38.76328514062854,-9.094552365253683
27154,Amanda Mccabe,0,outlier,38.76026631549032,-9.16643207693774
29809,Milton Yates,1,outlier,38.73608685952811,-9.149488621970262
44938,Lucille Reiser,0,outlier,38.76074167064343,-9.166264759210511
30869,Ernest Hufton,1,outlier,38.76366338060292,-9.095719024049846
1025,James Watson,1,outlier,38.76317132272763,-9.09443836687402
49553,Scot Robert,1,outlier,38.76459642850988,-9.096130981437778
7349,James Brown,1,outlier,38.76477372796015,-9.095703353591636
4574,Larry Newsom,1,outlier,38.78754309628544,-9.175926937867205
38242,Roger Stanley,1,outlier,38.7366195302457,-9.14934946018558
5854,Margarita Turner,0,outlier,38.7361538864786,-9.15080371057681
6475,Michelle Carpenter,0,outlier,38.75925719586591,-9.167237532251624
27008,Michael Collins,1,outlier,38.76077729579304,-9.165972460350478
20209,Joseph Young,1,outlier,38.76361038131861,-9.095482921372383
35961,Bryant Scott,1,outlier,38.76365691716904,-9.094790144747982
11555,Jeffrey Rodriguez,1,outlier,38.74882328458451,-9.173070874885289
1354,Yen Guerrera,0,outlier,38.74904291770973,-9.17291075013059
2932,Avis Hall,0,outlier,38.73733420014231,-9.150032600668386
22539,Jon Chun,1,outlier,38.73585025379352,-9.149284513835395
6747,Kristin Nelson,0,outlier,38.74856154777672,-9.172122660094594
46528,Joy Gillespie,0,outlier,38.76481898414922,-9.095096923089413
14939,Regina Jeffrie,0,outlier,38.76444135078397,-9.095945037072866
22735,Marjorie Waters,0,outlier,38.74788604859251,-9.17244925918331
19646,Frank Daniels,1,outlier,38.736227849221926,-9.149015154175736
1960,Myrtice Mcnab,0,outlier,38.74592786747517,-9.175829104137062
48975,Jeremy Waddell,1,outlier,38.73617473801584,-9.14929184127804
38356,Lauren Zurawski,0,outlier,38.7645214362196,-9.09473311022888
7530,Randall Hornlein,1,outlier,38.71551989543688,-9.139655478839485
19777,Diana Benner,0,outlier,38.74737910111246,-9.17338479552191
675,Robert Mcclinsey,1,outlier,38.7369006205028,-9.148932562645832
29759,Gina Little,0,outlier,38.74045641040144,-9.176129894960436
37427,Ramona Hyde,0,outlier,38.75959720792074,-9.165770521767271
23358,Shawn Burgess,0,outlier,38.76474918971308,-9.09585776098774
5495,Samantha Nabb,0,outlier,38.76375152242617,-9.095858864670994
31096,Cynthia Blanchard,0,outlier,38.76058221060886,-9.16586185700991
39853,Marshall Leng,1,outlier,38.73634111514284,-9.150259836003324
39555,Tom Gadson,1,outlier,38.74834042417477,-9.17219048890024
43664,Emma Balmos,0,outlier,38.75915760110835,-9.166670620840982
49422,Mary Barnhill,0,outlier,38.7361463249961,-9.149786865808602
1315,Dale Childress,1,outlier,38.74826082514237,-9.173424853631554
36769,Douglas Vance,1,outlier,38.75964431966898,-9.165783237542856
10505,Joseph Armijo,1,outlier,38.76318663673513,-9.095856794917164
44630,Robert Clark,1,outlier,38.764148429220654,-9.095223203233182
17909,Gary Chin,1,outlier,38.7595040968876,-9.166241899850831
13655,Matthew Karn,1,outlier,38.763361055672334,-9.09626640494663
6085,Dora Sheffield,0,outlier,38.764235378444944,-9.095446633897572
7920,Alton Cal,1,outlier,38.76421529891152,-9.094655767709392
12590,Janet Evans,0,outlier,38.75939066368168,-9.167210435670372
37032,Catherine Gay,0,outlier,38.73585923535133,-9.149103197720413
31057,Earl Washington,1,outlier,38.74873867531262,-9.172202640355502
8841,Joseph Ray,1,outlier,38.76358884314123,-9.096314507945726
40930,Allan Culp,1,outlier,38.73606747296089,-9.14995684509897
44853,Andy Barnett,1,outlier,38.76066122446316,-9.165640770503847
21999,Allison Thaniel,0,outlier,38.748420815271935,-9.173126034868512
2139,Steven Amaker,1,outlier,38.74776566743692,-9.173590975929311
44705,Rose Lemmons,0,outlier,38.76306475844789,-9.096116561384669
768,Martha Seals,0,outlier,38.75131076659218,-9.146639010276209
42017,Mike Garcia,1,outlier,38.75963466913692,-9.165765470827312
19,Evelyn Quinn,0,outlier,38.73741144408969,-9.149538726770924
47782,Jerry Pontbriand,1,outlier,38.76370837640232,-9.096147120766329
872,Jerome Davis,1,outlier,38.7362841822242,-9.15050292473332
4005,Marc Eagle,1,outlier,38.7098625938111,-9.1663237682292
3051,George Smith,1,outlier,38.759739887801615,-9.167463021162202
19686,Benjamin Ross,1,outlier,38.74812587144098,-9.172584258843022
30426,Lisa Miles,0,outlier,38.74148900379713,-9.205035980291612
12245,Kenneth Erickson,1,outlier,38.76384529883961,-9.095304695675305
31144,Wade Hopson,1,outlier,38.760640468460124,-9.16728462426281
14175,Julie Cardella,0,outlier,38.74761028639839,-9.172690233983484
10859,Robert Rios,1,outlier,38.73681287227493,-9.149308447682095
21406,Mathew Reynolds,1,outlier,38.75947217890571,-9.16625425946286
2170,John Anaya,1,outlier,38.74861832149197,-9.173832928102655
2784,Helen Farrow,0,outlier,38.760260406667065,-9.167509503362869
27652,Tami Wright,0,outlier,38.76400992431161,-9.09598748755379
28098,Timothy Verdino,1,outlier,38.76044398865325,-9.16622871279085
9567,Thomas Owens,1,outlier,38.759162657620095,-9.167266351259476
46916,Elisa Helland,0,outlier,38.74760092043283,-9.173801038740567
41146,Rigoberto Bonifacio,1,outlier,38.7609998178677,-9.167375546603422
39707,Rea Hainley,0,outlier,38.747294737979104,-9.173381781587937
26952,Thomas Singer,1,outlier,38.74810283255877,-9.172527014039323
31823,Mary Weese,0,outlier,38.764023608494426,-9.09609144659569
12539,Deborah Boston,0,outlier,38.76096327534798,-9.166798852511404
35755,Amy Nardone,0,outlier,38.73609176566563,-9.150121841844928
29944,Kim Grunder,0,outlier,38.73589202462876,-9.14887527408234
48635,Frank Harr,1,outlier,38.73729785201677,-9.149796483534766
7331,Carmelita Broddy,0,outlier,38.74915483025088,-9.172055532747578
10522,Marilyn Deshields,0,outlier,38.74919776046323,-9.173579740797868
43005,Cindy Gifford,0,outlier,38.76464528992718,-9.095458474113125
19558,Judith Mistretta,0,outlier,38.74758775168965,-9.172059580397171
42001,Steven Ramsey,1,outlier,38.74828748491296,-9.189806343476498
13295,Maggie Randall,0,outlier,38.76336593159359,-9.096266526293144
34771,Tammy Williams,0,outlier,38.74819574364338,-9.173136397309298
10635,Sherri Reynolds,0,outlier,38.747626230078666,-9.17385576799895
16023,Lillian Mccord,0,outlier,38.76410633638237,-9.096140572411104
40271,Mathew Tabor,1,outlier,38.74794954573745,-9.17365537709783
32159,Gary Wisniewski,1,outlier,38.73436038315965,-9.209141111394448
14450,Michael Velazquez,1,outlier,38.737101124436336,-9.149844293146725
48479,Shirley Wade,0,outlier,38.76479159576621,-9.095456914669672
43787,Doris Bush,0,outlier,38.75260252460054,-9.15257132980797
44258,Paul Mccorry,1,outlier,38.76083443792557,-9.166833368837503
32879,Esther Hall,0,outlier,38.73659316566596,-9.149239695692968
36127,Edward Beyah,1,outlier,38.73742268024508,-9.148838231844415
33187,Steve Jordan,1,outlier,38.74790253247417,-9.17345642016248
35344,Bessie Delzer,0,outlier,38.76023142002482,-9.166840088049376
4767,Jerry Harris,1,outlier,38.749034356986265,-9.172284103324214
35081,Meghan Greenstein,0,outlier,38.74856222114303,-9.17397969504125
7650,John Hairr,1,outlier,38.760454727855226,-9.166466696794062
39728,David Bailey,1,outlier,38.73609950176352,-9.149425249978394
27564,Stephen Turner,1,outlier,38.7640345588925,-9.096131471273644
23678,Gary Sines,1,outlier,38.76102052187564,-9.16662317692943
19829,Quincy Danner,1,outlier,38.76001334244651,-9.167060381159724
2291,Madeline Gonzales,0,outlier,38.759197767035126,-9.166312712860371
16968,Carol Pignone,0,outlier,38.76322987346352,-9.09562093705988
26452,Sean Ciciora,1,outlier,38.75983505558816,-9.166674250964768
39783,Keith Lopez,1,outlier,38.73566214229015,-9.150694943675653
21762,Wade Crabill,1,outlier,38.7600826962757,-9.16674320802852
4677,Mildred Garcia,0,outlier,38.76384228386197,-9.09536307519117
23065,Shannon Ashley,0,outlier,38.76419000356243,-9.096157750132257
31561,Timothy Tesoriero,1,outlier,38.73627995291122,-9.150305207535167
14778,Michael Stickel,1,outlier,38.763431564385286,-9.096313653345652
42698,Linda Lord,0,outlier,38.76026325977026,-9.167353823959742
14250,Sharon Mitchell,0,outlier,38.76479164092723,-9.094878735965317
11836,Ariel Lucey,1,outlier,38.763745135138365,-9.09594487877956
48170,Lee Saylors,1,outlier,38.737212925346256,-9.15060581569164
5104,Adrienne Anderson,0,outlier,38.76030700149924,-9.165694135710934
6589,Scott Cunha,1,outlier,38.75976395128108,-9.199661102802324
18136,Betty Moulder,0,outlier,38.75959072919586,-9.165605920209476
40250,Emiko Parker,0,outlier,38.73623267250897,-9.149559453053376
12296,Ralph Gonzales,1,outlier,38.76039254198363,-9.167144002291682
41517,Joseph Johnson,1,outlier,38.76325053105254,-9.094376947279406
4843,Susan Mercado,0,outlier,38.763432148678056,-9.096106215672163
903,Jeffrey Payne,1,outlier,38.764216712519016,-9.09526526105924
8934,Gregory Radosevich,1,outlier,38.76429910078799,-9.095604465630066
24458,Thomas Shedlock,1,outlier,38.764102004757824,-9.09624913753597
41216,Robert Summerville,1,outlier,38.76439563181381,-9.095148277674411
36718,Betty Aquino,0,outlier,38.759181653559104,-9.166725064095996
19511,Ann Dotson,0,outlier,38.762990027245166,-9.095407320857836
42485,Dorothy Kannel,0,outlier,38.76401122119908,-9.095090340910115
35030,Tina Williams,0,outlier,38.74905591495214,-9.17244637006002
6898,Elmira Caldwell,0,outlier,38.76052362126487,-9.166357297737507
33774,Michael Fonceca,1,outlier,38.76406875806195,-9.095025447443764
20004,Ethel Guadalupe,0,outlier,38.74788303925364,-9.1728001382734
34580,James Kennedy,1,outlier,38.73732581428569,-9.150349336558897
29380,Frank Moore,1,outlier,38.763668078291545,-9.094932935675748
49860,Heather Bower,0,outlier,38.7366240720605,-9.149699321401268
45523,Kevin Wilson,1,outlier,38.7085336039393,-9.188258376732492
29810,Violet Gillis,0,outlier,38.75909848801621,-9.167368439241434
45264,Isabel Johnson,0,outlier,38.76303071247224,-9.095700094707984
30795,Jan Jeanpierre,0,outlier,38.7456625332112,-9.189703601113669
8475,Theodore Johnson,1,outlier,38.76016162900773,-9.165855377710988
4821,Hazel Smith,0,outlier,38.75260148593897,-9.15925094299122
254,Julie Lee,0,outlier,38.74742048273172,-9.172249525088302
17935,Derrick Ornelas,1,outlier,38.76096910645915,-9.165823525318078
31688,Arturo Deere,1,outlier,38.737193396253005,-9.150519906915616
18436,Lillian Owen,0,outlier,38.76432456526448,-9.095792433399458
7224,Arlene Wright,0,outlier,38.73709206229274,-9.149849858871663
4703,Carolyn Rojas,0,outlier,38.7368912000366,-9.150010850371103
7118,Hilda Blakley,0,outlier,38.78249053731191,-9.163947517725902
28051,Lana Hastings,0,outlier,38.74766262996594,-9.173807225472478
46291,Simone Saathoff,0,outlier,38.74869713071905,-9.17252532360646
35327,Charlotte Johnson,0,outlier,38.74792904866213,-9.172499821190994
21037,Aaron Turcotte,1,outlier,38.7492108262601,-9.173631610177438
21097,Maryanne Rodgers,0,outlier,38.77967831429325,-9.133055610640998
12887,Jarrett Wallace,1,outlier,38.76333327218829,-9.095288913117784
32836,William Smart,1,outlier,38.76303131013231,-9.095283412163866
20163,Bryan Gill,1,outlier,38.73587441164435,-9.149455201792144
32497,Meredith Braun,0,outlier,38.76378952711272,-9.095620474803166
30934,Victor Bova,1,outlier,38.73627039303177,-9.150555284785929
16489,Tawana Townsend,0,outlier,38.76434125059502,-9.095067605693732
29779,David Lewis,1,outlier,38.73605657182114,-9.149042790366234
2477,Paulene Erickson,0,outlier,38.75966638807555,-9.166650251567637
2601,Winfred Polk,1,outlier,38.76091186188557,-9.16617819152772
21043,Cathy Ward,0,outlier,38.75936077933903,-9.166573713929491
43828,Bud Predovich,1,outlier,38.74867982915843,-9.17239393602932
30817,Jeremy Haynes,1,outlier,38.73557041641291,-9.150819133310218
18654,Corey Chevarie,1,outlier,38.74797908464161,-9.173162398048005
3822,Freeman Hilton,1,outlier,38.74806978107933,-9.173278102742458
21879,Ryan Osterberg,1,outlier,38.737435895828746,-9.148870347931354
39356,Barbara Tracy,0,outlier,38.76412762684564,-9.09459235986243
11061,Laura Leslie,0,outlier,38.74843141696813,-9.172791908927792
35740,Carter Bartlett,1,outlier,38.75926934671141,-9.165753533146432
38497,Mabel Garcia,0,outlier,38.76486607606385,-9.09600623362452
37155,Natasha Alford,0,outlier,38.73634972519364,-9.149368923425437
21684,Ronald Holstine,1,outlier,38.73884564137297,-9.190943610989068
14417,Ruth Hicks,0,outlier,38.759227487371554,-9.1657527100541
25675,Stephanie Randall,0,outlier,38.74821151415017,-9.172623929257654
22860,Luz Jones,0,outlier,38.73741897170761,-9.149928728265492
14935,Marvin Kittell,1,outlier,38.74907398204792,-9.173340637424182
37020,Deborah Hatcher,0,outlier,38.76432985869153,-9.095302607727389
10383,Hilda Maier,0,outlier,38.73642271467397,-9.15067349317417
34027,Louie Fleming,1,outlier,38.747808364825325,-9.173007056584272
21153,Gladys Meyers,0,outlier,38.733365824195786,-9.16446173067735
28030,Katherine Vaness,0,outlier,38.74892035260043,-9.172341628589804
35148,Kristine Christopher,0,outlier,38.73620371083624,-9.15040227728283
7292,Addie Bunker,0,outlier,38.73726535829595,-9.150046902439948
3332,Clara Lashbrook,0,outlier,38.75924488690009,-9.165607070900467
28110,Alejandro Lyons,1,outlier,38.76458494710807,-9.09629478494215
5529,Stephane Stroud,0,outlier,38.760767873278304,-9.16612159262548
17634,Leona Hughes,0,outlier,38.76352875088335,-9.094893101345551
6788,Trina Pruitt,0,outlier,38.74873563968072,-9.172602349150823
43963,Annette Claypoole,0,outlier,38.74905245254524,-9.173595636484984
28433,John James,1,outlier,38.748542622754,-9.1728705417216
34127,Lenore Wilkerson,0,outlier,38.736137678325264,-9.149540416247223
22370,Jean Washington,1,outlier,38.76346460616297,-9.096039445468488
45545,Mathew Sliger,1,outlier,38.76465416120485,-9.095630709293104
29683,Walter Navarro,1,outlier,38.74762020322821,-9.1722327604866
14977,Suzanne Bingham,0,outlier,38.74738911380756,-9.172178237907406
35678,Darlene Wild,0,outlier,38.75997929065844,-9.166238102891722
20522,Caroline Young,0,outlier,38.735503386382696,-9.15080124296899
15178,Leticia Cribbs,0,outlier,38.764835164610005,-9.095412989557332
712,Charles Meyerott,1,outlier,38.76074968835355,-9.166415354465787
2640,Lloyd Hertel,1,outlier,38.74850211556086,-9.172190514250168
40633,Sharon Wilder,0,outlier,38.760620328297925,-9.165766065175468
43680,Kim Henderson,0,outlier,38.73654868276586,-9.149859310261196
49714,Arlene Reed,0,outlier,38.759587304787495,-9.166935454590153
28987,Vivian Mabon,0,outlier,38.73705680523831,-9.150271719189876
33967,Sharon Smith,0,outlier,38.76301367552868,-9.09577992840764
30491,Dewey Mejia,1,outlier,38.748838803992136,-9.172336904840718
12092,Michaela Johnson,0,outlier,38.748473905205415,-9.172401870618383
12478,Kevin Taylor,1,outlier,38.75994624452783,-9.16652723719248
47132,Deborah Horning,0,outlier,38.74731259360762,-9.173376124096848
22189,Tonia Holland,0,outlier,38.764824932869615,-9.096327527381302
49756,Esther Hollister,0,outlier,38.77175561444373,-9.171569778837094
2257,Lowell Crandell,1,outlier,38.74825544769381,-9.17390606852202
31787,Doris Wiggins,0,outlier,38.73546593243017,-9.14943636845128
26180,Kera Gagnon,0,outlier,38.74787603172849,-9.1734742954848
17544,Michael Larson,1,outlier,38.73608062854233,-9.150416647550452
42286,Richard Hockaday,1,outlier,38.7360928410674,-9.149098683199403
1987,Kevin Stone,1,outlier,38.760088888931975,-9.167496059831873
14396,Chris Walters,1,outlier,38.75997244676035,-9.165589813574698
48655,Cassie Jones,0,outlier,38.76038121954024,-9.166186365806912
25270,Vonnie Sefcovic,0,outlier,38.737311776518425,-9.149981418098935
2113,Robert Allard,1,outlier,38.75915881377068,-9.165812621924768
2950,Jose Simpson,1,outlier,38.76442249555158,-9.095102760055516
21441,Michael Davis,1,outlier,38.74870979572173,-9.17260489230556
10963,Raul Magill,1,outlier,38.73608207686135,-9.15037221141904
3891,John Schutz,1,outlier,38.7357976107516,-9.149611948629572
45788,Kyle Damron,1,outlier,38.7356276453,-9.149605015997716
27279,Ruthie Garcia,0,outlier,38.73603542391452,-9.15036681585575
14664,Carmen Marotti,0,outlier,38.736792991410425,-9.148852604929465
9402,Mary Sadowski,0,outlier,38.75994852896167,-9.166602962744603
28059,Morris Galloway,1,outlier,38.76470180950282,-9.094416668407018
43878,Hilda Mcfadden,0,outlier,38.76406095804235,-9.095577286668412
19709,Mark Durbin,1,outlier,38.74923581803351,-9.174010121315549
28989,Hazel Snider,0,outlier,38.76103549744123,-9.165876872480522
23482,Stephanie Bennett,0,outlier,38.74978506664281,-9.139235614835014
8182,Melissa Tanner,0,outlier,38.73633104041159,-9.150167783103122
604,Kevin Lawson,1,outlier,38.735699770388514,-9.150318653385224
18375,Gloria Davis,0,outlier,38.73630409167514,-9.149518944851833
24906,Jose Halter,1,outlier,38.76480392017017,-9.095596174191272
47541,Marie Crownover,0,outlier,38.74794441648455,-9.17329695920438
21213,Larry Coon,1,outlier,38.759703955752414,-9.166262499872968
41707,Mary Mask,0,outlier,38.763905551180144,-9.095038574522135
21264,Robert Williams,1,outlier,38.760357398299256,-9.166436203185643
36845,Jacque Kaiser,0,outlier,38.76312545053162,-9.095402679431473
36395,Joshua Ballew,1,outlier,38.76025589436431,-9.166483443846994
31136,Arthur Perkins,1,outlier,38.75978776775416,-9.166758489606137
7179,Chad Frick,1,outlier,38.735470636933066,-9.148872091882758
16719,April Nance,0,outlier,38.76416678126522,-9.095449597521508
18249,Ronald Pitts,1,outlier,38.76303103180944,-9.094556470989506
17305,Dianne Ing,0,outlier,38.74821372678048,-9.172283958454774
13522,Brian Millan,1,outlier,38.7358872429611,-9.149375143821285
44185,Craig Reinert,1,outlier,38.748141804981415,-9.172125431703368
85,Margaret Cunningham,0,outlier,38.76083131382984,-9.16755904501492
4209,Jason Wagner,1,outlier,38.73704246574556,-9.149384372209363
10617,Maria Torres,0,outlier,38.74865283244129,-9.172116482166354
28918,Emma Brack,0,outlier,38.7491733121356,-9.172861785613488
22325,Leola Hanna,0,outlier,38.76011695778212,-9.165829313957149
45599,Lucille Hamilton,0,outlier,38.73639034113001,-9.150433107201202
45388,Herbert Smalls,1,outlier,38.76016002058589,-9.165717362371003
20481,Fred Evans,1,outlier,38.76045144594932,-9.16630646582629
21641,Pauline Leffew,0,outlier,38.76423136816787,-9.095111591581636
3872,Ann Driver,0,outlier,38.7646302641364,-9.096125090808798
10236,Raphael Kelley,1,outlier,38.76322142339039,-9.096234449039434
10803,Andrea Edwards,0,outlier,38.74880584524404,-9.172196132426274
36256,Raquel Allen,0,outlier,38.74774902288987,-9.172465931568889
38424,Walter Huseman,1,outlier,38.764466797847206,-9.09578900785019
11752,Mary White,0,outlier,38.73586775888332,-9.150055009894205
23092,Jean Kang,0,outlier,38.759771146099375,-9.16716447134444
22754,John Ehrgott,1,outlier,38.76324152670616,-9.09443768382722
19248,Robyn Saling,0,outlier,38.763983206212856,-9.096078457104747
32815,Caroline Middleton,0,outlier,38.727926165245,-9.134523409413545
27173,Claudia Mitchell,0,outlier,38.76354512674923,-9.09469980256283
11591,Saul Wealer,1,outlier,38.763783542389,-9.09559803076823
22398,Vicky Rouse,0,outlier,38.76398159959492,-9.09504217379743
18656,Lorraine Speidel,0,outlier,38.74894605776422,-9.173293653102572
5143,Timothy Crigler,1,outlier,38.73668447929168,-9.150100877600217
25741,David Livingston,1,outlier,38.74808111070488,-9.173580429932006
6211,Brock Carlson,1,outlier,38.73713586542589,-9.15045407093873
1984,Amber Lankford,0,outlier,38.76007984883886,-9.167512204779506
48317,Jason Guizar,1,outlier,38.764263309976265,-9.09545831574404
39361,Eunice Schlitz,0,outlier,38.73598219849966,-9.149581929954712
33064,Sean Freshour,1,outlier,38.7598434291866,-9.165878831021628
12620,Brian Brock,1,outlier,38.748130041026144,-9.17319657633796
26479,Gregory Stuckert,1,outlier,38.73130297011048,-9.18791033708966
44697,Evelyn Eddinger,0,outlier,38.764059813269576,-9.191789893116937
23359,Donna Thomas,0,outlier,38.736625805066105,-9.150698813323556
48475,Marsha Alfaro,0,outlier,38.7605852359414,-9.167360144175412
24847,Laura Brock,0,outlier,38.73603585924966,-9.150724869287078
34240,Peter Bernardi,1,outlier,38.75909551333711,-9.166951075910328
2022,Debra Miller,0,outlier,38.735464711144765,-9.15043365589202
25550,Joann Pitts,0,outlier,38.76438899957309,-9.095220948333656
6487,Hilda Lowell,0,outlier,38.74839365570482,-9.173007848890292
27403,Mary Paine,0,outlier,38.759786615163705,-9.165665739111898
3449,John Pena,1,outlier,38.74875320068439,-9.17390668508729
2649,Jeffry Matthews,1,outlier,38.737178583884486,-9.150726998806304
36946,Sarah Karnes,0,outlier,38.759632946075136,-9.166281111188978
2145,Richard Ibach,1,outlier,38.76434499768455,-9.0951957273788
12388,Curtis Herrera,1,outlier,38.73662280699426,-9.149904451616315
40374,Shannon Mancine,0,outlier,38.737253695345736,-9.150742067411686
31238,Mark Corbett,1,outlier,38.760971136811634,-9.16589820472916
10749,Ann Verkamp,0,outlier,38.75919003792856,-9.166301283294306
42319,Lolita Germany,0,outlier,38.76362220655407,-9.0950609628302
45458,Prudence Robinson,0,outlier,38.74913987660983,-9.173503654827888
44579,Mario Carter,1,outlier,38.760197433141485,-9.16753933107903
1301,Melissa Shelton,0,outlier,38.76439373728507,-9.096074761386957
46152,Diana Sotelo,0,outlier,38.76461655014285,-9.096089021351968
26324,Blanche Gregory,0,outlier,38.78122157164242,-9.207615186326333
16812,Kimberly Sadowski,0,outlier,38.76463829438882,-9.094843674833498
23806,Sarah Powers,0,outlier,38.764613439581,-9.095037723651256
30526,Derrick Ricci,1,outlier,38.74805893337305,-9.172241254119903
14804,Blanca Meadows,0,outlier,38.76052861129613,-9.166064535142151
18694,Timmy Ricardo,1,outlier,38.74813962365634,-9.173702155611432
5908,Marvin Snodgrass,1,outlier,38.73579566343483,-9.14991233721275
10265,Rebecca Burdick,0,outlier,38.78260966717133,-9.17826123661359
30145,Morris Maddy,1,outlier,38.747738096569705,-9.173435100842774
5419,Michael Thomas,1,outlier,38.76398283656249,-9.094564491776346
19451,Antonio Regan,1,outlier,38.74902920615801,-9.173595757633615
49967,Ashley Gaylord,0,outlier,38.76004110064347,-9.16745398192174
39638,Gina Walton,0,outlier,38.73680628876212,-9.15065951295712
29384,Hazel Tinney,0,outlier,38.73734632900227,-9.150192195135798
15511,Phyllis Zamudio,0,outlier,38.7371653622882,-9.149891398779856
44471,Joe Scowden,1,outlier,38.76054136669323,-9.16593811772732
9433,Judy Zukowski,0,outlier,38.73635819879913,-9.150764787612149
8157,Anthony Anderson,1,outlier,38.75971920548463,-9.165820977012096
49523,Stephanie Summitt,0,outlier,38.76358410550544,-9.094520417737504
44306,Howard Dancy,1,outlier,38.73674168365704,-9.15035673005879
43307,Clarence Hurley,1,outlier,38.760969021836814,-9.165743286405554
17393,William Wolfrom,1,outlier,38.75952106556184,-9.166774734433828
29419,Rachelle Pitts,0,outlier,38.763439270011794,-9.095367911088031
39740,Susan Kleine,0,outlier,38.75968530833692,-9.1664744816346
37746,Thomas Mcdonald,1,outlier,38.74834874225659,-9.173397742909517
1405,Ray Smith,1,outlier,38.7473248068701,-9.173975826366592
27292,Jerry Perez,1,outlier,38.73731014588783,-9.148945288862466
20821,Jessica Hackwell,0,outlier,38.71886852387081,-9.159724335926091
31034,Robin Baker,0,outlier,38.76088252877686,-9.166687816835582
13106,Gail Vaughn,0,outlier,38.76417116671438,-9.09486613706949
25084,Marilyn Rincon,0,outlier,38.73651094960991,-9.150498491354112
3809,Barry Waldecker,1,outlier,38.73673377234766,-9.150138347022049
18539,Steven Catron,1,outlier,38.76097625007971,-9.167015661837654
18255,Deanna Conwell,0,outlier,38.760542254276295,-9.167025664659354
4064,Oscar Allmon,1,outlier,38.73650494872337,-9.149039486924972
1247,Larry Arnett,1,outlier,38.74768057891926,-9.173541745632996
39584,George Henderson,1,outlier,38.76426905204077,-9.09484516236735
18926,Gordon Smith,1,outlier,38.76310360449033,-9.095302747993944
839,Lauren Gavin,0,outlier,38.7598175713832,-9.167241402576948
13326,John Dunbar,1,outlier,38.73739476904321,-9.14921321430006
31496,Malik Vangieson,1,outlier,38.736265842685214,-9.149924136675462
31297,Paula Lamb,0,outlier,38.73642254486397,-9.150400303654177
25975,Brian Fife,1,outlier,38.73664155811945,-9.150551253290695
26242,Juan Miller,1,outlier,38.76451209371931,-9.095162727978764
49107,Jason Helms,1,outlier,38.73721046188962,-9.1507352874648
42479,Tyrone Arnold,1,outlier,38.73621819882806,-9.149197123486724
24591,Billy Adkins,1,outlier,38.76028781387536,-9.167215637005787
11912,Patricia Kocon,0,outlier,38.75945519470403,-9.16559314235617
27813,Larry Gold,1,outlier,38.73675629128147,-9.149798643850396
8204,Pamela Barnett,0,outlier,38.76386758186438,-9.094950925694064
36880,Thomas Araujo,1,outlier,38.764838991026544,-9.095757684930168
7915,Silvia Bohlke,0,outlier,38.76302995463176,-9.094427432060588
2988,Robbyn Simms,0,outlier,38.74846901892449,-9.173663053021706
20869,Jack Little,1,outlier,38.7643512357105,-9.096335006816682
42988,Pinkie Stewart,0,outlier,38.76310959239234,-9.094769516017676
43152,Kurt Goff,1,outlier,38.74881954099118,-9.172125166326014
29254,Luke Humphries,1,outlier,38.76388881756584,-9.094948931330457
16215,William Manning,1,outlier,38.73599447092711,-9.148842354258637
44999,Cathy Mendoza,0,outlier,38.760725774057946,-9.1660874160191
31361,Valerie Uran,0,outlier,38.73550701676256,-9.149218686603794
44618,Frank Marshall,1,outlier,38.73678606851214,-9.149481374251716
10637,Robert Shelton,1,outlier,38.76457430489442,-9.096302943354296
17805,Stephen Burns,1,outlier,38.73657046855094,-9.149640255093644
24298,Wanda Alexander,0,outlier,38.764674986745305,-9.095850785993068
10055,Richard Fricks,1,outlier,38.75996292351705,-9.166172193832075
2301,Daisy Phuong,0,outlier,38.75971202368784,-9.167002147995085
42370,David Hinh,1,outlier,38.736775924216175,-9.149700485312485
30568,Thomas Rouzer,1,outlier,38.76443483702287,-9.09606058690782
39861,Juan Brown,1,outlier,38.73631519785389,-9.15033638155759
19259,David Christopher,1,outlier,38.76049704403912,-9.167357366605035
24315,Daniel Luna,1,outlier,38.7477306475078,-9.173397881274136
10142,David Rivera,1,outlier,38.73716418020274,-9.149581541727724
25581,Stanley Bailey,1,outlier,38.76365999583163,-9.095153777571216
48907,Aaron Reid,1,outlier,38.760930755516576,-9.167456580280843
5798,Robert Sert,1,outlier,38.74750860883847,-9.172929454201084
27353,Patricia Austin,0,outlier,38.76378555465068,-9.09447513538664
9709,Nyla Otto,0,outlier,38.760309963045216,-9.166697348036408
12198,Jack Smith,1,outlier,38.748012943334366,-9.172373696006266
19835,Jacqueline Gil,0,outlier,38.73720094862444,-9.149728236312606
6649,Evangeline Reinert,0,outlier,38.7368223874709,-9.149431258364531
41411,Harriet Sooter,0,outlier,38.74749341217528,-9.173130751925369
40338,Edna Harris,0,outlier,38.74797433606639,-9.172696884936634
24180,Dixie Martin,0,outlier,38.73641055691906,-9.14928025825708
34912,Jennifer Mann,0,outlier,38.73734644419313,-9.149284548835668
28652,Gwendolyn Orton,0,outlier,38.74799894283539,-9.17337647997572
43260,Jeremiah Davis,1,outlier,38.76384360317654,-9.094679589134662
38930,Brenda Lowe,0,outlier,38.74779818229303,-9.173512137721742
26011,Jessica Woods,0,outlier,38.764700073384994,-9.09535566926149
25678,Mary Brown,0,outlier,38.74796448965225,-9.173654504756966
38632,Michael Lee,1,outlier,38.74909845676424,-9.173874514467968
7833,Judy Haith,0,outlier,38.76480718196082,-9.09605794939895
36050,Tasha Snyder,0,outlier,38.76363910908977,-9.09519997486345
5294,Mark Scott,1,outlier,38.74763310747697,-9.173061400656376
35639,Hattie Mace,0,outlier,38.76376489713396,-9.096180695607504
36848,Olive Rikard,0,outlier,38.76402357590422,-9.095450206663402
651,Krystal Patton,0,outlier,38.74762917833559,-9.173060155339147
7717,Rosa Gonzalez,0,outlier,38.764448713349225,-9.094396177823858
44034,Frank Allegra,1,outlier,38.74901697227212,-9.173363459906696
40611,Joseph Hurst,1,outlier,38.73741417692322,-9.149274033233954
1867,Michael Magruder,1,outlier,38.73662698981553,-9.150617424496591
3733,Frank Land,1,outlier,38.73563335318142,-9.150289607283872
5918,Marilyn West,0,outlier,38.759494415534746,-9.166355838738362
49771,Alfred Pugh,1,outlier,38.7491057073614,-9.17337636066747
35221,Takisha Gantt,0,outlier,38.74849091410685,-9.172184487333157
36200,Juan Noreen,1,outlier,38.73700421471436,-9.149974421251224
8474,Tony Jimenes,1,outlier,38.74853499912503,-9.173790884489714
42982,Mary Short,0,outlier,38.76353089636738,-9.09439378880691
35652,Edward Shawe,1,outlier,38.74755996660654,-9.173939515211066
33647,Tim Taylor,1,outlier,38.7491893124771,-9.172810083141083
5513,Katia Singleton,0,outlier,38.76406288687282,-9.09514803711469
24604,Lisa Holland,0,outlier,38.73669185796875,-9.149125601685084
33579,Latoya Mills,0,outlier,38.76072018562861,-9.167513846940968
29587,Carlos Rickard,1,outlier,38.76451065073139,-9.09479946470358
8417,Joanne Seale,0,outlier,38.73606806699628,-9.150602988685408
45367,Simon Edgar,1,outlier,38.7477172980637,-9.172744660654068
46839,Mary Mize,0,outlier,38.749026975661245,-9.17290967336572
24366,Susan Reaves,0,outlier,38.76466417643535,-9.09503320210971
48209,Karla Farley,0,outlier,38.74731305080131,-9.173389569707464
14867,Marianne Battis,0,outlier,38.759404943925865,-9.167112487071687
29312,Susan Ramsey,0,outlier,38.7357211594593,-9.149535853829564
17019,Martin Hazelwood,1,outlier,38.763782588674815,-9.09610965738327
718,Melvin Burke,1,outlier,38.76431018463668,-9.094792435034064
26183,Roy Myhre,1,outlier,38.736033597048674,-9.15029744374698
39835,Donnie Ruud,1,outlier,38.75979909231893,-9.16660653710697
35389,Jerry Russell,1,outlier,38.73678270804379,-9.150033100347777
11544,Victoria Weil,0,outlier,38.76102796148299,-9.166269636927018
12661,Tabatha Tiscareno,0,outlier,38.748884287441385,-9.173049748614622
3403,Patrick Cline,1,outlier,38.75950725618644,-9.16718982148696
20015,James Tejera,1,outlier,38.759529252112486,-9.16611185557495
20595,Iris Hubbard,0,outlier,38.73737577348844,-9.15017147848526
22423,Tracie Darnell,0,outlier,38.76359384556443,-9.09615969177908
16666,Ella Wittstock,0,outlier,38.747375257759735,-9.172882221057376
35939,Victor Simmons,1,outlier,38.73552114843443,-9.1503321369018
36913,David Caldeira,1,outlier,38.76470133584068,-9.0956431299085
32083,Nicole Welch,0,outlier,38.76460435739386,-9.094524910272298
24183,Lonnie Cox,0,outlier,38.73700826845919,-9.150117826303973
36643,Marguerite Garcia,0,outlier,38.75986058933751,-9.166305122011334
38297,Susan Zemel,0,outlier,38.763967564148366,-9.096317881224977
26135,Earl Johnson,1,outlier,38.7364726298786,-9.15070983392122
35888,Wilma Baird,0,outlier,38.74733757426467,-9.17270537271584
27604,Michael Dillon,1,outlier,38.73631800682151,-9.149769871766114
36664,Kay Messina,0,outlier,38.75914727310808,-9.16569574862246
26990,George Handelman,1,outlier,38.76394617730385,-9.095281125478754
2786,Yolonda Aldridge,0,outlier,38.759953993478064,-9.16592039661076
44783,Hugh Hallmark,1,outlier,38.76332294053641,-9.095968927558689
44091,Alexia Cole,0,outlier,38.74752856704987,-9.173798997401498
26697,Jeanne Fernandez,0,outlier,38.74900256460223,-9.172148028778734
31142,Audrey Risser,0,outlier,38.76024272248262,-9.166987501703582
22412,Clayton Bradley,1,outlier,38.75998706975387,-9.166357857537246
12345,Bernard Scheid,1,outlier,38.759643852432646,-9.167250372291512
31536,Dustin Kellar,1,outlier,38.760871313847176,-9.165908293202056
19688,Kim Refazo,0,outlier,38.7371933548524,-9.149292677216852
22110,Charles Mejia,1,outlier,38.76404178137226,-9.095966462362568
28323,Mary Williams,0,outlier,38.76004952992675,-9.165691936407413
36515,Shirley Evans,0,outlier,38.75917890225976,-9.16747827282613
16854,Lisa Ryan,0,outlier,38.73720883003913,-9.148944512401505
22159,Michael Butler,1,outlier,38.747424398380815,-9.172621826302414
28660,Roberta Bradley,0,outlier,38.76328493649527,-9.094622062063936
6321,Mark Salinas,1,outlier,38.76481189159409,-9.095412449521294
18748,Jessie Mendenhall,0,outlier,38.73546504724862,-9.14897032505422
27785,Brenda Hogg,0,outlier,38.737116993702905,-9.150250045433468
35835,Joseph Stanley,1,outlier,38.73563635441982,-9.149910656335654
32979,Elizabeth Hoes,0,outlier,38.76448728050514,-9.095459143360957
38293,Brian Jefferson,1,outlier,38.73722214859105,-9.148826546987108
29575,Paul Harrist,1,outlier,38.76298791707222,-9.094377651845669
5550,Rodney Walls,1,outlier,38.74776401875071,-9.17395633867389
20048,Vanessa Meads,0,outlier,38.74744768958512,-9.173415798329025
15342,Troy Littell,1,outlier,38.74793500069004,-9.17213648090425
16227,Cassidy Kilberg,0,outlier,38.73675061269064,-9.149368202169876
12046,Charlotte Meza,0,outlier,38.73624493228352,-9.14963930291762
9659,Jeffrey Rosemond,1,outlier,38.76297658914061,-9.095216443774609
32811,Ronald Kirk,1,outlier,38.7600196611309,-9.167092397203264
46308,Greg Cheng,1,outlier,38.76472502037082,-9.09574209285562
23188,Morgan Dyer,0,outlier,38.76328059171681,-9.096200906318613
9505,Marsha Landfried,0,outlier,38.74740795046612,-9.172742662109837
7954,Rachel Dailey,0,outlier,38.75912190067954,-9.16679301574944
43362,Helen Williams,0,outlier,38.76376376335955,-9.09549078482308
31229,Jose Forman,1,outlier,38.74909963352568,-9.173237991204452
36837,Leona Warner,0,outlier,38.73698902908345,-9.150436980241892
38874,Elizabeth Hardy,0,outlier,38.76017847233718,-9.166451233594708
546,Gordon Gaunce,1,outlier,38.73706940409195,-9.150329273793156
47467,Kelsey Brown,0,outlier,38.737341644299406,-9.149259424619752
1286,Michael Smith,1,outlier,38.73651779459003,-9.149328581230394
27376,William Moon,1,outlier,38.76354354832686,-9.09624288747306
3444,Steven Jolin,1,outlier,38.76400368753486,-9.094818886130524
47618,Robbin Wood,0,outlier,38.7610454717169,-9.167096939011758
46578,Filiberto Hawkins,1,outlier,38.764015966265646,-9.09529587232982
21034,George Warrick,1,outlier,38.73580480991638,-9.150100619293356
7196,Marcos Adams,1,outlier,38.73708714497202,-9.149267848088233
4929,William Purvis,1,outlier,38.74788977200977,-9.173015383087591
19910,Davida Gipson,0,outlier,38.74827444933821,-9.173124012115068
46790,John Whitmore,1,outlier,38.7605722985459,-9.166819800838727
39512,William Dallas,1,outlier,38.74833050371863,-9.172778306032248
40328,Donnie Koch,1,outlier,38.76318603944977,-9.095141651773126
26516,Richard Hightower,1,outlier,38.74910561920584,-9.173083375721196
45514,Bruce Rhynes,1,outlier,38.76415787128951,-9.0958389733101
17742,Cynthia Wilson,0,outlier,38.748625017197696,-9.173674368767578
39753,Barbara Kimbrel,0,outlier,38.76425372967793,-9.094872698742128
9451,Dawn Imig,0,outlier,38.74763076258343,-9.173721420538977
13805,Abby Hucks,0,outlier,38.76001049751825,-9.165929072494857
40601,Heather Mcrae,0,outlier,38.735763512842894,-9.15071250283032
10796,Terri Weldon,0,outlier,38.76437712990989,-9.095695475693216
35668,Steven Johnson,1,outlier,38.759451741352585,-9.167076610602187
8737,Dean Pinto,1,outlier,38.735873127461694,-9.150487458862456
32216,Jannette Steinberger,0,outlier,38.76099623932448,-9.166630012176618
27713,William Bryd,1,outlier,38.73611078942526,-9.14887254638267
36027,Norman Rayos,1,outlier,38.76348109954527,-9.094612170774615
25540,Beverly Wolf,0,outlier,38.76324654390984,-9.09585468345913
2191,Gary Aybar,1,outlier,38.76425447766061,-9.095050252739815
2614,Louise Parrish,0,outlier,38.73707280463024,-9.150632761035686
18513,Marshall Buchanan,1,outlier,38.76029067317239,-9.167206924610673
32055,John Campbell,1,outlier,38.76485544827224,-9.095667371830311
16569,Jordan Kirkley,1,outlier,38.760723862446994,-9.165968409870256
28407,Shawn Anderson,1,outlier,38.73729653517915,-9.14898475145625
25874,Martha Johnson,0,outlier,38.761056519118334,-9.16619521706818
25562,Stephan Gales,1,outlier,38.749070342101234,-9.173735422366246
2652,Benjamin Hopkins,1,outlier,38.76003726096776,-9.167282155079842
33130,Lucille Benesh,0,outlier,38.73577623248816,-9.15018297659881
24869,Frederick Riggie,1,outlier,38.74921543123857,-9.172045513930128
30972,Alvin Young,1,outlier,38.76327953493706,-9.095951018930982
25991,Ethel Bloodsaw,0,outlier,38.73578704155035,-9.14947282392163
20606,Cindy Thomas,0,outlier,38.759650954557735,-9.166636468679382
17203,Antone Lewis,1,outlier,38.760770704534586,-9.16588684364241
28819,Robert Mcknight,1,outlier,38.76039444791616,-9.16664391503362
32916,Vickie Ward,0,outlier,38.7360140334064,-9.149641941081692
45007,Lois Webley,0,outlier,38.75918324108996,-9.165712150936804
40870,Denise Gaylord,0,outlier,38.76476974854788,-9.095982651437438
11031,Melinda Lundgren,0,outlier,38.76444487088375,-9.09535076035904
11676,Jerry Frazer,1,outlier,38.73576965683785,-9.150448575699674
33836,Mary Bergeson,0,outlier,38.73720711233648,-9.14966839384002
6463,Ophelia Latham,0,outlier,38.7367527741653,-9.150290100941517
9244,Michael Piekarski,1,outlier,38.736500261212186,-9.150422161581025
12175,Renee Jones,0,outlier,38.76366076970806,-9.095101482915606
3185,Mathew Jones,1,outlier,38.76458966735856,-9.094605180057847
39702,Tiffany Wilson,0,outlier,38.76300216702244,-9.094743512889822
13546,William Jones,1,outlier,38.74766741613373,-9.172281001093952
1116,Frances Bacon,0,outlier,38.76482954265409,-9.096109431123349
41501,Elizabeth Hogan,0,outlier,38.76452996441164,-9.096348749648543
4602,Frances Stokes,0,outlier,38.76391025570386,-9.09553634675498
2977,Deborah Thomas,0,outlier,38.76465344192948,-9.094519802060478
48482,Juanita Hartman,0,outlier,38.736000892700446,-9.150190519656848
40937,Michael Hummingbird,1,outlier,38.76358720465552,-9.095546222940795
13065,Andrew Sanders,1,outlier,38.72566892169628,-9.190330076742676
10455,William Roberson,1,outlier,38.71477548757987,-9.176104211106278
45772,Carlton Lavalley,1,outlier,38.74611129571855,-9.17150921778534
3120,Megan Mendoza,0,outlier,38.73814772269746,-9.189970296473664
23797,Kevin Machin,1,outlier,38.744471694342096,-9.123368837678951
12524,Carlos Darnell,1,outlier,38.72958991479129,-9.194281034689462
10508,Betty Stewart,0,outlier,38.72118881322756,-9.183207142621374
32518,Lidia Phelps,0,outlier,38.73656727004215,-9.189799667875745
45766,Amanda Kohler,0,outlier,38.75555291666615,-9.174253067053144
22722,Glen Hall,1,outlier,38.769081606581,-9.145299734634264
22609,Shirley Broce,0,outlier,38.76511228318609,-9.190231851871914
9352,Felisha Caserta,0,outlier,38.73205272151895,-9.133621845080874
42469,Linette Thomas,0,outlier,38.73172601076768,-9.124542826707591
9845,Clyde Belcher,1,outlier,38.73390949995825,-9.168164722528076
7775,Leonard Alexander,1,outlier,38.73660961993125,-9.127394851436604
31221,Carri Bond,0,outlier,38.75245839622765,-9.161846306782293
6192,Emma Griggs,0,outlier,38.77327276508242,-9.182889451553187
32797,Leo Mcqueen,1,outlier,38.77826968668715,-9.138191297334648
20056,George Parrish,1,outlier,38.75135300049379,-9.1857520876211
36814,Debbie Taylor,0,outlier,38.73663280150242,-9.1444436217992
29515,Sam Phillips,1,outlier,38.76465354459333,-9.170199597817591
7701,Delphia Seevers,0,outlier,38.74936998929257,-9.181014308135836
41301,Joyce Blanton,0,outlier,38.74520630531094,-9.129083416188978
23242,Mary Rogers,0,outlier,38.76657505059664,-9.175199321855793
29097,Mildred Statler,0,outlier,38.73477267718148,-9.17710146759084
24370,Dora Valdovinos,0,outlier,38.78558627882696,-9.188143006895473
34812,Joel Mckeown,1,outlier,38.74832398870363,-9.16350255540521
21354,Jacquelin Mitchell,0,outlier,38.737758700912295,-9.153654842439
34140,Joseph Peterson,1,outlier,38.78681208806382,-9.13747849331691
15015,Teresa Pychardo,0,outlier,38.71437785448367,-9.195439327429296
29265,Margaret Zapien,0,outlier,38.784336396465065,-9.174717077695304
25290,Caroline Ramirez,0,outlier,38.741199849293615,-9.17919435958143
11305,Julie Lindenpitz,0,outlier,38.71263852431319,-9.18295067345352
34149,Marlene Greer,0,outlier,38.76677120211235,-9.14562645844707
22310,Louise Cook,0,outlier,38.72161779792762,-9.152023752496389
24445,Patricia Lawalin,0,outlier,38.72335313920473,-9.13355210201606
18783,Kevin Campbell,1,outlier,38.745287781622906,-9.19580307189823
39871,Juanita Hollabaugh,0,outlier,38.71342233223482,-9.13627980263658
49019,Eleanor Griffin,0,outlier,38.76538036828771,-9.147009467245544
25500,Christy Gamblin,0,outlier,38.72252769534988,-9.13938081248713
19572,Robert Wright,1,outlier,38.7117984447926,-9.188733313483114
32527,Araceli Zender,0,outlier,38.763564573897725,-9.174655301537316
30476,Mark Ross,1,outlier,38.77789553062983,-9.188705411815343
7785,Johnny Schmitke,1,outlier,38.74481948093861,-9.180987083318842
5937,John Chavez,1,outlier,38.76555293222945,-9.170928373249522
36318,Magda Peterman,0,outlier,38.73099105289883,-9.186615721747032
40830,Mike Atkinson,1,outlier,38.76108175964068,-9.122662124971235
6178,Kathleen Luckow,0,outlier,38.77982069856333,-9.160934122851248
19126,Casey Blanchard,0,outlier,38.71720147066203,-9.124520189804372
5838,Sandra Oldham,0,outlier,38.710935023162826,-9.18611953325562
8089,Pamela Lawing,0,outlier,38.744023190461256,-9.14082250731269
4380,Christina Dover,0,outlier,38.73125457027952,-9.12490528057182
37328,Barbara Chouinard,0,outlier,38.77193685772386,-9.172976205296116
38736,Jessie Johnson,1,outlier,38.77489610255926,-9.141144186773277
23389,Elinor Neal,0,outlier,38.73788436741247,-9.165561120067752
735,Stephen Moore,1,outlier,38.7638418087688,-9.126227930125776
4757,Raphael Baker,1,outlier,38.7758426706902,-9.17892909961522
2454,Robert Driver,1,outlier,38.772434377136165,-9.160968855982835
2806,Jason Tran,1,outlier,38.7204707293734,-9.17667291954398
12287,Aisha Werner,0,outlier,38.772455760095234,-9.159359851047691
3758,Allyson Fisher,0,outlier,38.77960628527135,-9.125632963938797
4494,Caroline Huber,0,outlier,38.75901755325488,-9.190254796711017
48010,Albert Allen,1,outlier,38.71756395646338,-9.143036061476584
608,Sarah Mendez,0,outlier,38.73043472727596,-9.15402064159398
44494,William Yoo,1,outlier,38.75887274360208,-9.193992768122545
28900,Kent Foster,1,outlier,38.76641874316015,-9.172190112379624
11162,Anna Frahm,0,outlier,38.73294206322997,-9.128513046242729
24557,Gudrun Sanchez,0,outlier,38.74325816213951,-9.123185802621038
14481,Sue Mcneill,0,outlier,38.71141299465549,-9.1802247881385
6114,Gaylord Chrisco,1,outlier,38.76407531971101,-9.138084765423027
5938,Peggy Ashby,0,outlier,38.718939404187815,-9.117526678795596
8845,Carolyn Myers,0,outlier,38.7501906936776,-9.13316884469708
46181,Mildred Merkle,0,outlier,38.779595778594285,-9.180576133588549
37347,Betty Bey,0,outlier,38.7343699490702,-9.18731208969946
1362,Kyle Amador,1,outlier,38.76126434904968,-9.154509289034475
20273,Lisa Steward,0,outlier,38.72407403891169,-9.187421837595895
41902,Earl Parman,1,outlier,38.74447540608916,-9.187201062419946
831,Angela Branch,0,outlier,38.73490348554774,-9.178842857028965
21612,Amy Luoma,0,outlier,38.72655226654316,-9.122290449823272
5446,Alma Everhart,0,outlier,38.78224631232276,-9.124360614193655
31183,Dinah Kennedy,0,outlier,38.725662105676456,-9.169100866210249
21348,Iris Williams,0,outlier,38.71634811821411,-9.143759086048652
20367,April Maiden,0,outlier,38.7338520719191,-9.14079999044198
36693,Mildred Romans,0,outlier,38.75336499564482,-9.163213915334198
49227,Vicky Warren,0,outlier,38.76672442542563,-9.175476098972224
22716,Georgia Frezzo,0,outlier,38.72438376758327,-9.145675992884682
41193,Roy White,1,outlier,38.6948274374781,-9.161294244777473
35714,James Laurie,1,outlier,38.72531011224144,-9.154056886541488
17323,Shawna Hawkins,0,outlier,38.70802021567953,-9.175360536036203
2184,William Bounds,1,outlier,38.78176372476669,-9.182042092119296
5341,Agnes Tino,0,outlier,38.73993352187547,-9.15615991475609
21346,Francis Walstrum,1,outlier,38.75284256798117,-9.187371347174793
46741,Sandra Stjean,0,outlier,38.76531790683794,-9.140072004758212
45779,Marie Garcia,0,outlier,38.708958433679136,-9.118647586942172
10618,Patricia Mccracken,0,outlier,38.73895975674548,-9.147500088177075
40458,Gerald Kimbrell,1,outlier,38.76978071783252,-9.119905573577451
38241,Gene Perry,0,outlier,38.72522083742681,-9.127438509385872
20041,Edward Stone,1,outlier,38.75749353828242,-9.147816208233625
38420,Michael Compton,1,outlier,38.7547937443457,-9.13203545822273
3912,Naomi Ward,0,outlier,38.71187524927781,-9.17408335659376
35635,Rose Peters,0,outlier,38.76305466360476,-9.160179885322943
18444,Lori Gabriel,0,outlier,38.7366836801809,-9.143123447024427
2527,Brittany Woodward,0,outlier,38.73037159514711,-9.154648918615868
39972,Erma Brown,0,outlier,38.75784315991052,-9.16204756349594
33082,Olga Blanding,0,outlier,38.78688302277776,-9.135754528642668
42343,Jim Harris,1,outlier,38.71501102418554,-9.122780663987191
20296,Angela Warman,0,outlier,38.74465802545914,-9.17341780939618
32947,Mathew Rice,1,outlier,38.72730164925338,-9.17286639058564
2778,Michael Hill,1,outlier,38.71856972176972,-9.187799641323616
19214,Sarah Carpenter,0,outlier,38.70125948995661,-9.160493673455866
11922,Dorothy Sanchez,0,outlier,38.747451141901,-9.158768069880226
25942,James Ashton,1,outlier,38.72076174154552,-9.149139808145526
43792,Robert Camus,1,outlier,38.76496293438204,-9.14340867834871
24701,Dorothy Livengood,0,outlier,38.77952257011239,-9.163451691284058
45191,Deena Dunn,0,outlier,38.77055346416755,-9.139628373473837
14311,Judy Larkins,0,outlier,38.74033774565164,-9.131972339510884
47817,Joseph Winstead,1,outlier,38.71863516207405,-9.14891482449979
5548,Kelly Haines,1,outlier,38.71172302493836,-9.18162396697316
1787,Joshua Garrison,1,outlier,38.74179154795113,-9.1679027696217
31180,Patricia Cash,0,outlier,38.76864056405742,-9.149099408959392
48464,Tony Cahill,1,outlier,38.72517247994309,-9.147657709330066
39054,Shelly Jewell,0,outlier,38.720954303032606,-9.161041799193352
48110,Gregory Leyendecker,1,outlier,38.743264507650885,-9.170155622073684
8847,Shannon Bullock,0,outlier,38.73464678138267,-9.167747715700251
9494,Mari Cohen,0,outlier,38.770850582776085,-9.14345723141299
667,Carmen Rogers,0,outlier,38.770087541659805,-9.175054770985136
31217,Dora Hansen,0,outlier,38.76214111164285,-9.120584013434662
12924,Jeremy Clark,1,outlier,38.73439027226619,-9.182882493368394
21873,John Green,1,outlier,38.78385669224572,-9.183920598092442
15365,Leo Sanchez,1,outlier,38.70047713518906,-9.15545712814284
36185,Laura Chelton,0,outlier,38.72195697987176,-9.191135909829493
43582,John Austin,1,outlier,38.75481977171716,-9.136209800973038
42914,Peter Forte,1,outlier,38.73336639688271,-9.194574555870728
3702,Daniel Alldredge,1,outlier,38.73015266799164,-9.154426677635357
36970,Darrin Beckem,1,outlier,38.76127414670266,-9.178027101572996
38448,Daniel Mitchell,1,outlier,38.75350310795978,-9.116712450466958
28367,Arthur Parrish,1,outlier,38.76871656438212,-9.1507947644042
18232,Jesse Arms,1,outlier,38.70111692711215,-9.164902280746992
14009,Vivian Nielsen,0,outlier,38.7227355492095,-9.142231019259894
18901,Frederick Rolle,1,outlier,38.72523272682043,-9.183622061726387
9375,Chasity Kruger,0,outlier,38.69845323800509,-9.174864154561677
39390,Lorene Linder,0,outlier,38.74659705719607,-9.13786670666495
18878,Keith Hong,1,outlier,38.73051255403244,-9.11835689978119
206,Margarita Roberts,0,outlier,38.74453571566378,-9.1425231006732
30153,Jeanette Numbers,0,outlier,38.734372152772,-9.118997176486966
33450,Leroy Nguyen,1,outlier,38.71882417220934,-9.150132373325292
38537,Dan Jenkins,1,outlier,38.7487299839153,-9.137641500699209
11664,Daniel Cammack,1,outlier,38.74662590101428,-9.119282971249277
39452,Hilda Mcdonald,0,outlier,38.75397602350007,-9.128319140899766
28978,Jacqueline Keown,0,outlier,38.76269182788515,-9.163719667135602
38315,Marie Tucker,0,outlier,38.708335776342224,-9.129609980063996
26727,James Teeter,1,outlier,38.725520096789694,-9.171573925406443
36825,Anita Byington,0,outlier,38.72996856861206,-9.180791518523218
27890,Letitia Mansfield,0,outlier,38.77919064409713,-9.149228732865538
35278,Amy Henderson,0,outlier,38.78542198564696,-9.1213348909805
12902,Jennifer Gaddis,0,outlier,38.736812979512834,-9.149142018706096
27330,Charles Delatrinidad,1,outlier,38.76311950441606,-9.12006234092957
19669,Kenneth Rudolph,1,outlier,38.718772151856825,-9.195711222523556
19608,Katherine Wilhoit,0,outlier,38.75789116970118,-9.153793771518547
34934,Erin Green,0,outlier,38.73890759396145,-9.168931150528874
49450,Jason Simmons,1,outlier,38.75128965059118,-9.155138926100252
24030,Jessica Schuster,0,outlier,38.78751831749334,-9.170470774093728
20975,Karen Shelly,0,outlier,38.77109271662523,-9.189388911592747
39164,William Bibeau,1,outlier,38.73525412352127,-9.181104676921809
28487,Joan Tucker,0,outlier,38.71002820792264,-9.14442540532354
35978,Amy Dewitt,0,outlier,38.69747449762792,-9.154441126902285
29952,Alicia Turner,0,outlier,38.75168653025639,-9.146042065715944
36550,Dean Moon,1,outlier,38.723756902120975,-9.138589707500577
26965,Joanne Bachman,0,outlier,38.76827027997796,-9.182116958531545
1760,John Rainey,1,outlier,38.75295964285611,-9.16314573702879
41413,Margarita Martinez,0,outlier,38.741585212860365,-9.186704275340476
29400,Susan Jones,0,outlier,38.72956689987487,-9.154878899394026
35424,Jamie Leach,0,outlier,38.71669708958789,-9.120344595093943
4170,Robert Brady,1,outlier,38.74235977079877,-9.155571764568466
13951,Aaron Stuemke,1,outlier,38.70009252168032,-9.167164804587308
22487,Mark Twyman,1,outlier,38.72866572730299,-9.142493879367052
13009,Neva Mccollum,0,outlier,38.71241137282702,-9.127250953118356
44441,Lottie Gerdes,0,outlier,38.75694218415108,-9.188015050612565
26310,Eddie Slay,1,outlier,38.76131933485848,-9.152541795244854
31294,Evangelina Connor,0,outlier,38.75813540359099,-9.155855468207797
33582,Vicki Kearsley,0,outlier,38.76479505897673,-9.131818737927992
37174,Verna Lynch,0,outlier,38.71096275563448,-9.151011320977506
8815,Maryann Craig,0,outlier,38.72077001787213,-9.18003765544771
43060,Sandra Deason,0,outlier,38.745197786191554,-9.185156001332397
9655,Lonny Schaefer,1,outlier,38.74366511909528,-9.144966521426676
24266,Frank Carter,1,outlier,38.77483583786751,-9.193732451152943
35464,Mary Arnold,0,outlier,38.74056093471258,-9.130852319914698
44234,Amy Hamilton,0,outlier,38.74614301840743,-9.159376182896889
34823,Louise Allen,0,outlier,38.76383605348634,-9.155559298464729
19616,Darrin Eisner,1,outlier,38.74723438841871,-9.169673964899967
28019,Robert Canty,1,outlier,38.724121170704166,-9.144862957437327
45372,Tracy Harvey,0,outlier,38.77009190291026,-9.117668256424585
17126,Cora Vancleave,0,outlier,38.74321673945958,-9.150727778384333
34426,Holly Turner,0,outlier,38.77702679123657,-9.191302828822211
21955,James Kelley,1,outlier,38.78097012573211,-9.184600812313242
42034,Matthew Friedman,1,outlier,38.6981198391718,-9.172282064814484
39160,Mark Joe,1,outlier,38.70987668295265,-9.19616635089547
33041,Dina Rahim,0,outlier,38.70778216293955,-9.142241989474094
39945,Tandy Kaufmann,0,outlier,38.74927540964566,-9.176914059483297
4234,Sammy Sasaki,1,outlier,38.74117031709493,-9.156009404147245
12872,Corrine Swartzentrube,0,outlier,38.713123493594246,-9.16348428165578
427,Samantha Branco,0,outlier,38.718852390170746,-9.163813126053334
2708,Jennifer Prichard,0,outlier,38.72942594449267,-9.144011779254797
12753,Anne Harkins,0,outlier,38.76207920618201,-9.141676936758865
19017,Irene Fata,0,outlier,38.72625985464984,-9.14669212770618
3554,David Durrance,1,outlier,38.74605271350138,-9.161001955091592
3129,George Mccain,1,outlier,38.71827106811151,-9.169352959885124
16578,George Donart,1,outlier,38.73967022331103,-9.17708822654535
33291,Karina Koerner,0,outlier,38.740620459574224,-9.165228230731318
26887,Robyn Johnson,0,outlier,38.70552742765594,-9.169859100481007
14786,Donna Mastroianni,0,outlier,38.74517171518789,-9.160960501886182
35202,Brandon Newsome,1,outlier,38.70341169360313,-9.145800206364962
35411,Doris Nevins,0,outlier,38.72578608451337,-9.151334709418618
40768,Cynthia Turner,0,outlier,38.75053392357862,-9.163392735185376
30704,Joshua Hentz,1,outlier,38.73476361539264,-9.141068418912228
44827,Samantha Deeds,0,outlier,38.74005732515835,-9.142831912944716
23934,Jessie Lewis,1,outlier,38.71774371104618,-9.147829883761238
7204,Andrew Barr,1,outlier,38.727987365686,-9.170281468027358
3306,Tyrone Jones,1,outlier,38.75141791314339,-9.146613230116868
44116,Sandra Ussery,0,outlier,38.71238801644439,-9.14573325884219
15938,Trinidad Garcia,1,outlier,38.69644802923439,-9.154810574589352
39932,John Robison,1,outlier,38.70624403415371,-9.161086223455358
16443,Rhonda Medrano,0,outlier,38.74194598137084,-9.143416115492684
1506,Diana Owens,0,outlier,38.721421617290815,-9.175659276079378
33555,Richard Young,1,outlier,38.74820525255919,-9.178934420355512
847,Yvonne Dambrosio,0,outlier,38.69726199911144,-9.164019904851257
15088,Keith Mckenna,1,outlier,38.74053861598423,-9.14736015165984
1017,Jesse Frederick,1,outlier,38.699610583581325,-9.13572681571563
21241,Diane Laureano,0,outlier,38.73713106524178,-9.143318646857985
9254,Jose Schneck,1,outlier,38.7163820857524,-9.14323011157187
47519,Andres Ferry,1,outlier,38.768596607417024,-9.152583185022758
31228,Matthew Jarvie,1,outlier,38.703590212412166,-9.147547807006076
44436,Kenneth Jones,1,outlier,38.73869133891437,-9.166860084285888
16852,Margarita Lawrence,0,outlier,38.70895558656599,-9.172767590918625
688,Stephanie Lievano,0,outlier,38.74340395245568,-9.17333694463987
36879,Richard Jeffers,1,outlier,38.74382735951284,-9.148922297403258
1484,Frances Hook,0,outlier,38.73042724992226,-9.150919101432027
34918,Kendra Ritter,0,outlier,38.74837429475557,-9.145433362074304
44989,Rory Gutierrez,1,outlier,38.72454039465714,-9.146620945913089
37755,Patricia Knobbe,0,outlier,38.72029998305784,-9.14679632856556
37301,David Triche,1,outlier,38.72890321739299,-9.16595309351464
4947,Anthony Finnemore,1,outlier,38.756869119389904,-9.16010422055488
41335,Luis Wagner,1,outlier,38.750421323968936,-9.160750289372936
33999,Christopher Stewart,1,outlier,38.75127850140585,-9.148043187940312
26685,Loretta Lewis,0,outlier,38.74875668639629,-9.170456164824577
28360,Robert Martin,1,outlier,38.72559003371433,-9.166193760776247
22049,Harvey Brinton,1,outlier,38.71472171153877,-9.139693984729629
39275,David Mcconkey,1,outlier,38.727120723746445,-9.172127984539827
15340,Mary Green,0,outlier,38.69542274562523,-9.157400520879646
7426,Susanne Turner,0,outlier,38.74771226974057,-9.155421729286902
3446,Mary Barth,0,outlier,38.74456821484781,-9.155728450873587
31242,George Ochoa,1,outlier,38.722512283947154,-9.153187477271052
16073,Patricia Bodo,0,outlier,38.75115059965013,-9.147237755382866
37255,Hugo Roy,1,outlier,38.73805550742939,-9.160286623580292
32856,Lonna Henrickson,0,outlier,38.73450591068075,-9.15819347423012
16801,John Yaney,1,outlier,38.73185166717996,-9.166490962996653
49970,Brittany Perez,0,outlier,38.719363683400175,-9.158229524298038
27519,Patrick Peavy,1,outlier,38.762784534323394,-9.16658531008316
5634,James Patch,1,outlier,38.723808243017245,-9.173350582697548
3611,George Jacobson,1,outlier,38.72316615109247,-9.14985407359806
15487,Scott Romero,1,outlier,38.7270012834764,-9.169249164009386
19666,Louise Huff,0,outlier,38.70231598796644,-9.148526658346215
868,Debora Jones,0,outlier,38.718654487357504,-9.14917224633501
32045,Ruben Davis,1,outlier,38.73698226468562,-9.174968149194616
41763,Jeremy Moore,1,outlier,38.723473564263024,-9.179853264056684
22250,Joseph Samaroo,1,outlier,38.73042510454282,-9.143619897193991
43990,Jeremy Rodriguez,1,outlier,38.71722292954696,-9.146845156432116
19810,Amber Brown,0,outlier,38.76060436231894,-9.14392742398523
7972,Larry Bissonette,1,outlier,38.74353973627806,-9.168704793452717
47194,Cathy Bustamante,0,outlier,38.74314623024772,-9.174201476327392
38656,Cameron Toner,1,outlier,38.74606784267625,-9.167831453030098
32737,Joseph Weaver,1,outlier,38.72046239888867,-9.153395579192583
21200,Steven Trainor,1,outlier,38.72743137083239,-9.172163522241492
21524,Lawrence Mesa,1,outlier,38.71912081390063,-9.143147628544936
8519,Barbara Marks,0,outlier,38.71450552302346,-9.141730500603854
31811,Brenda Haynes,0,outlier,38.73588226336773,-9.149740539887402
28431,Pierre Berman,1,outlier,38.70066067151789,-9.150415790679691
34226,Kurtis Norman,1,outlier,38.72192329673288,-9.163886056703438
45510,Arthur Longenberger,1,outlier,38.72134437366795,-9.149500155687653
38357,Eric Gross,1,outlier,38.76509306581978,-9.15246011477282
38805,Edward Crawford,1,outlier,38.73691534859741,-9.16987882591611
24672,Tricia Greene,0,outlier,38.76649004566831,-9.15351353141283
19475,Jonathan Levandowski,1,outlier,38.746777627135856,-9.159384447128213
10811,Kurt Vines,1,outlier,38.747083642102936,-9.144119279245274
28897,Brittany Peck,0,outlier,38.71839919376429,-9.1673820470108
26603,Gregory Scott,1,outlier,38.7200719594887,-9.146149202920563
48523,Erma Patterson,0,outlier,38.73445926884691,-9.1769482937648
18182,Doris Byrnes,0,outlier,38.72513024486075,-9.15513298867055
186,Randy Dipietro,1,outlier,38.71142245551636,-9.154239505020184
39446,Freddie Fuoco,1,outlier,38.74195062046751,-9.148296881504429
11002,John Harris,1,outlier,38.719895616160905,-9.152443852269268
7884,John Johnson,1,outlier,38.72748430945988,-9.162319550858983
39698,Oscar Hanson,1,outlier,38.72156393255787,-9.154587460490209
17051,Francis Vankeuren,1,outlier,38.729261536945,-9.15978426010278
2140,James Rivera,1,outlier,38.74434206995076,-9.151766646270076
19146,Jordan Fox,1,outlier,38.7276414067924,-9.147797230067637
2293,Louise Ferreira,0,outlier,38.728948641091954,-9.173298292328184
11630,India Gamboa,0,outlier,38.73642716044758,-9.174903360286883
30884,Steven Durk,1,outlier,38.73335380732508,-9.172806863129203
28895,Rebecca Aguirre,0,outlier,38.72754515944541,-9.148447951820842
19200,James Smith,1,outlier,38.74836515246176,-9.16830572856692
46791,Vanessa Anderson,0,outlier,38.74349095888396,-9.144054974841142
38819,Brandon Tucker,1,outlier,38.74145690718959,-9.171259735010231
22973,Brian Warner,1,outlier,38.74680310005653,-9.161168043238938
31800,Dominga Byron,0,outlier,38.75364495702043,-9.172570271860296
23902,Dean Drummond,1,outlier,38.76839249503784,-9.14153409156102
18053,Ira Lowry,1,outlier,38.71946137516389,-9.13865762305812
19865,Edward Pritts,1,outlier,38.75495470770936,-9.14618616312752
40235,Amy Werner,0,outlier,38.74310168748776,-9.150702220280598
36760,Sarah Gardenhire,0,outlier,38.74760509150351,-9.1479155571898
33311,Frederick Dunagan,1,outlier,38.703025447108175,-9.15521351965638
49470,Jennie Peterkin,0,outlier,38.7260696736284,-9.139043388109606
36094,Marian Smith,0,outlier,38.74628776282236,-9.146423484779945
34491,Robert Gafford,1,outlier,38.73554327508047,-9.176787785191673
29213,Rosa White,0,outlier,38.76418986350891,-9.142400162033631
9758,Eddie Fountain,1,outlier,38.702840026124775,-9.139451338880104
10625,Jose Smith,1,outlier,38.73020859265094,-9.151187566808472
7296,Lacey Hinish,0,outlier,38.71866109557455,-9.17549456642772
41757,Dennis Boeck,1,outlier,38.76298313146239,-9.167550916969212
42924,Brenda Macarthur,0,outlier,38.75180171287524,-9.147162380347153
36386,Regina Marsh,0,outlier,38.74106798395032,-9.161823232962972
23427,Tyrone Herbst,1,outlier,38.76469015591504,-9.15073583949144
23296,Linda Lowe,0,outlier,38.71890631977994,-9.143164649423507
4493,Richard Boyd,1,outlier,38.72304962128571,-9.16024706187438
967,Curtis Berndt,1,outlier,38.72536587602509,-9.165781606051274
26609,Refugio Gray,1,outlier,38.723257603319965,-9.170470207315663
24912,Frank Harris,1,outlier,38.705937726556655,-9.16091243058001
6658,Benjamin Mcnutt,1,outlier,38.706098849316966,-9.159792665729874
32901,Joseph Johnson,1,outlier,38.73207966290642,-9.157829406998111
8912,Patricia Skutt,0,outlier,38.74564657774988,-9.164043742558135
37819,Joyce Davies,0,outlier,38.722793066250304,-9.13874998131929
37531,Rita Moyer,0,outlier,38.72499624044182,-9.15091463234399
35603,Cathy Brown,0,outlier,38.75576207142995,-9.151053485273868
14410,Pok Ramsey,0,outlier,38.69105817015096,-9.160156288800652
39474,Kevin Jones,1,outlier,38.71855468941019,-9.17349712865468
15346,Judy Beard,0,outlier,38.72812958980455,-9.155089907737338
2154,Barbara Grimes,0,outlier,38.75114698668944,-9.163688231006834
5426,Ruth Wyatt,0,outlier,38.69063626631424,-9.164023888034004
7339,Donna Fernandez,0,outlier,38.70136440489864,-9.169913895017006
25281,Leo Pfeiffer,1,outlier,38.69614906074858,-9.152947553857889
740,Ann Smith,0,outlier,38.715778979050135,-9.15241317513568
40923,Tami Dancy,0,outlier,38.69800542859967,-9.17363576636019
18485,Nora Lusk,0,outlier,38.70983543791325,-9.164085790155031
8387,Beth Babcock,0,outlier,38.70014215110611,-9.14405551386238
42831,Jack Hinde,1,outlier,38.69257264106704,-9.147180849612964
25840,Isidro Anderson,1,outlier,38.74874939283674,-9.162608525656104
1332,Mary Riggan,0,outlier,38.72304247602485,-9.156345054157498
32488,Stephanie Harris,0,outlier,38.70435381650899,-9.16777955857354
47696,Marsha Mcgee,0,outlier,38.72689449363884,-9.1757575727683
21111,Nadine Leite,0,outlier,38.74279260249553,-9.1653772768145
37438,Samantha Barnes,0,outlier,38.76040438336624,-9.166935514065626
11845,Debbie Morgan,0,outlier,38.76286602592453,-9.166232775272238
46298,Maude Webster,0,outlier,38.70010364306073,-9.170805350113168
27644,Robert Stinson,1,outlier,38.70321364238301,-9.172767776744289
21761,Josh Owens,1,outlier,38.756738375837,-9.169389308168665
40730,Matthew Redd,1,outlier,38.72258918743365,-9.14423432428984
20281,Michelle Seefeldt,0,outlier,38.74867222617347,-9.172118710226757
24943,Shanna Thompson,0,outlier,38.76327464382372,-9.094413943986286
38704,Bonnie Ricker,0,outlier,38.73701834781766,-9.149349222698763
36450,James Elizarraras,1,outlier,38.74763272716107,-9.172396158410058
348,Frank Purcell,1,outlier,38.75918134039478,-9.1670463015842
24812,Sean Dixon,1,outlier,38.737267816460914,-9.149502525385154
9237,Kevin Mclaughlin,1,outlier,38.74888187867166,-9.173082886979923
4839,Virgil Peterson,1,outlier,38.747312441809314,-9.173367794314824
45448,Elise Stark,0,outlier,38.736972694408905,-9.150591673504874
49071,John Miller,1,outlier,38.75998809705493,-9.167162463155258
30724,Michael Rew,1,outlier,38.76441825860451,-9.096055498515408
6750,Daniel Biddle,1,outlier,38.74814458763797,-9.173540305625092
11256,Martha Myers,0,outlier,38.73684404092321,-9.150716737566253
34664,Roger Landis,1,outlier,38.747491079423966,-9.173471128098608
35250,James Bartolet,1,outlier,38.76405705012764,-9.094705515603414
14898,Heather Hanson,0,outlier,38.73614871832834,-9.150256111492997
24014,Toni Priolo,0,outlier,38.74921565260213,-9.172535091099142
44672,Myrtle Wollenberg,0,outlier,38.75991975909477,-9.167409206497496
43859,Brianna Mattews,0,outlier,38.74850510086488,-9.172839014521118
24053,Lila Pineda,0,outlier,38.76321138648091,-9.095830651491069
42338,Elsie Gibbons,0,outlier,38.73547548259063,-9.150538470533322
16428,Shirley Hannah,0,outlier,38.76046736466315,-9.167171892143855
4223,Paul Morris,1,outlier,38.74908899497334,-9.173004289123108
25882,Rita Smith,0,outlier,38.764687300017,-9.096195093814227
19471,George Warrington,1,outlier,38.73691273734408,-9.1495426272043
9424,Dianne Richardson,0,outlier,38.76381021235208,-9.095115232266853
28300,Elijah Cassady,1,outlier,38.764398240879046,-9.095754585870605
45583,Cheryl Bowling,0,outlier,38.764251878690686,-9.095390369682203
46760,Marlene Goldman,0,outlier,38.73640035540655,-9.149652386111628
26364,Deanna Parrott,0,outlier,38.73578494152856,-9.149107598427095
4694,Ruben Dillon,1,outlier,38.73688890144556,-9.15003893817443
18106,James Grossman,1,outlier,38.74726467336144,-9.17283941487473
42856,John Neal,1,outlier,38.7632468554345,-9.094766386032912
48086,Charles`s Fishy,1,outlier,39.35684227662392,-9.380685024731108
31838,Ursula`s Fishy,0,outlier,38.96345024145518,-9.417103952881632
41519,Lindsay`s Fishy,0,outlier,38.96325164684547,-9.416520916351924
41076,Carol`s Fishy,0,outlier,39.35676592878227,-9.381005176258666
43120,Rosetta`s Fishy,0,outlier,39.35655563149174,-9.381713991185649
3647,Hector`s Fishy,1,outlier,39.35589819172834,-9.382044155661704
29825,Kara`s Fishy,0,outlier,39.3575429177064,-9.382030978009093
637,Dianne`s Fishy,0,outlier,38.96305341799806,-9.416967666165505
22356,Juan`s Fishy,1,outlier,38.96250149157913,-9.416831133988827
25919,Edison`s Fishy,1,outlier,39.35618302307441,-9.381418188987634
17763,Sunni`s Fishy,0,outlier,39.355777946335536,-9.381836494347729
6153,Colleen`s Fishy,0,outlier,39.35697117560312,-9.38217797310791
38670,Ashley Walker,0,outlier,38.740810990396085,-9.15906556503212
5019,Stanley`s Fishy,1,outlier,39.35735936375801,-9.38098979408159
42855,Fernando`s Fishy,1,outlier,38.96259058771461,-9.417410146164393
8293,Hui`s Fishy,0,outlier,38.96397381249497,-9.417574225374286
44757,Bernard`s Fishy,1,outlier,39.357218318123785,-9.381201050473628
16529,Blanche`s Fishy,0,outlier,38.96357444978785,-9.417622894389314
4902,Gregory Towne,1,outlier,38.73673841728807,-9.149007830135869
26391,Timothy`s Fishy,1,outlier,39.35727547809932,-9.380782465549244
22414,Bradley Porter,1,outlier,38.77572624105573,-9.212102981553889
5083,Michael`s Fishy,1,outlier,39.35720154051531,-9.381317526798393
42629,David`s Fishy,1,outlier,38.96273934803369,-9.416756888699114
26035,Wanda`s Fishy,0,outlier,39.35624454473936,-9.381943489404575
47595,Darrell`s Fishy,1,outlier,39.35754945509165,-9.380497022503835
22053,Jose`s Fishy,1,outlier,38.96406144363563,-9.416142723132136
16094,Linda`s Fishy,0,outlier,38.9634434991546,-9.416457436994856
46523,Audrey`s Fishy,0,outlier,39.356475239392175,-9.381794510417407
23080,John`s Fishy,1,outlier,38.96394228337654,-9.417643389945187
245,Laura`s Fishy,0,outlier,38.9624791789633,-9.41790725714642
14162,Princess`s Fishy,0,outlier,39.35580589980536,-9.381800541660755
11748,Natalie`s Fishy,0,outlier,39.35622797877021,-9.38172147958341
23002,Jennifer`s Fishy,0,outlier,38.963381759270376,-9.417304570428366
3245,Julia`s Fishy,0,outlier,39.35605725028087,-9.382158498577944
13523,Anissa`s Fishy,0,outlier,39.35715718065591,-9.381918055445697
11050,Virgie`s Fishy,0,outlier,39.355957458165065,-9.380680219965608
25588,June`s Fishy,0,outlier,39.35635800437336,-9.381230411705
42497,Amy`s Fishy,0,outlier,38.96235467758344,-9.417183246970216
29680,Rene`s Fishy,1,outlier,39.357324540162864,-9.381161878579626
36602,Terry`s Fishy,1,outlier,39.357501648168544,-9.382085850260156
8298,Leland`s Fishy,1,outlier,38.96292267504326,-9.4177921387674
31988,Cindy`s Fishy,0,outlier,39.35619725138843,-9.380982087474214
1858,Elizabeth Hodge,0,outlier,38.78589626436645,-9.17446583720914
47564,Ted`s Fishy,1,outlier,38.96354329796944,-9.41765554757427
17748,Cedric`s Fishy,1,outlier,39.357572834432034,-9.381181873600934
11905,Linda`s Fishy,0,outlier,39.35616074974542,-9.38091602849908
42139,Yetta`s Fishy,0,outlier,38.96401291343562,-9.416760039050352
3000,Thelma`s Fishy,0,outlier,38.96286802471516,-9.416310699252993
9961,Angel`s Fishy,1,outlier,39.35647888843121,-9.380437398346096
10443,Kevin Smith,1,outlier,38.7606347902479,-9.165746169705116
14197,Tina Jackson,0,outlier,38.74565446600475,-9.19535667992324
42506,Gerald`s Fishy,1,outlier,39.35603911790775,-9.380483202227566
29135,Margaret`s Fishy,0,outlier,39.35582471536943,-9.382164999328117
32674,Dean`s Fishy,1,outlier,38.96304446749628,-9.41666437180994
40895,William`s Fishy,1,outlier,39.35640332466762,-9.381372899181349
45796,Marlene`s Fishy,0,outlier,38.96228781779188,-9.417825868173972
25215,Jana`s Fishy,0,outlier,39.35689582011863,-9.380532537034233
13616,Shawn Bresler,1,outlier,38.73580028570937,-9.149334837507212
37816,Craig`s Fishy,1,outlier,39.35603877474094,-9.380333975100852
35641,Ronald`s Fishy,1,outlier,38.96365885765749,-9.417777850650664
41726,Christa`s Fishy,0,outlier,38.96305398025145,-9.416478707630985
16971,Ester Haid,0,outlier,38.74839690429855,-9.172212464328169
859,Curtis`s Fishy,1,outlier,39.357120363321336,-9.381486452440404
43126,Edmond`s Fishy,1,outlier,38.962628963951765,-9.417553397969844
22832,Earl`s Fishy,1,outlier,39.35586632129935,-9.38130948572677
17836,Sandra`s Fishy,0,outlier,38.96236750005332,-9.416416665344268
38453,Jesse Price,1,outlier,38.73549495668471,-9.149310565488758
37310,Sandra`s Fishy,0,outlier,39.3566561057444,-9.380671942357235
1830,Alejandro`s Fishy,1,outlier,39.35710828111099,-9.380403869771166
45447,Linda`s Fishy,0,outlier,39.35609851182099,-9.38209323459225
21725,Chad`s Fishy,1,outlier,39.35729440695526,-9.381342993189268
1483,Ryan`s Fishy,1,outlier,38.96365303483279,-9.417378157176351
25563,Adam`s Fishy,1,outlier,38.96234250517226,-9.417295807192678
10023,Michele`s Fishy,0,outlier,39.35721540489786,-9.38067545583573
46383,Thomas Gavenda,1,outlier,38.73587720568512,-9.14885238579456
341,Grace Smith,0,outlier,38.76061378350032,-9.166570736311908
13739,Floyd`s Fishy,1,outlier,38.963613213967626,-9.416291174907505
1850,Julianna`s Fishy,0,outlier,39.35671918056265,-9.38116257750083
49919,Richard`s Fishy,1,outlier,38.96255092908236,-9.417844969414077
41010,Joseph`s Fishy,1,outlier,39.35696804259965,-9.381712494655426
43610,Daniel`s Fishy,1,outlier,38.96276101396814,-9.417923792682448
3759,Wayne`s Fishy,1,outlier,38.96334604350054,-9.417013509872705
4830,Larry`s Fishy,1,outlier,38.96414059553192,-9.416383509774656
42300,Darryl`s Fishy,1,outlier,38.96273495955573,-9.416526410854315
23479,Francesca`s Fishy,0,outlier,39.356454680921935,-9.381601088913945
16698,Tonia`s Fishy,0,outlier,38.96349003710915,-9.41771817271673
30367,Stasia`s Fishy,0,outlier,38.96265945724752,-9.417932367524568
7208,Ellen`s Fishy,0,outlier,38.96367208804813,-9.417815117107477
5534,Regina`s Fishy,0,outlier,39.35618193691453,-9.38119885280529
12463,Ben`s Fishy,1,outlier,39.35650641972008,-9.380747409903684
49660,Ramona`s Fishy,0,outlier,38.96382177779602,-9.416551531334434
3353,Jean`s Fishy,0,outlier,38.96310575691434,-9.417527767631176
3096,Rebecca`s Fishy,0,outlier,38.96237633153518,-9.417494139550204
12890,Pamela`s Fishy,0,outlier,38.96364884646409,-9.416685096143643
39383,Christopher`s Fishy,1,outlier,39.357059137372296,-9.38086825595555
39539,Stephen Cowley,1,outlier,38.76047191441892,-9.133994694619483
29655,Douglas`s Fishy,1,outlier,39.35580338289738,-9.38080131485763
4190,Glenn Alberts,1,outlier,38.72598780792335,-9.133272680276756
4217,Deloris`s Fishy,0,outlier,38.963549695207305,-9.417621987916103
32141,Joshua`s Fishy,1,outlier,39.35720735551296,-9.382142665344103
43729,Lillian Brown,0,outlier,38.72352685192695,-9.172996767953196
40404,Moses`s Fishy,1,outlier,38.96355132193746,-9.41756286493145
31173,Vernita`s Fishy,0,outlier,39.35666901665971,-9.380758055284865
25035,Ian`s Fishy,1,outlier,38.9632773184412,-9.416688027958807
33620,William`s Fishy,1,outlier,39.35702470501954,-9.380993938449802
10518,Janet`s Fishy,0,outlier,38.96297639370951,-9.416716854475832
3830,Seth`s Fishy,1,outlier,38.96385278807063,-9.417559421211507
21068,Jesse`s Fishy,1,outlier,39.3560686000018,-9.3809635541012
985,Luis`s Fishy,1,outlier,39.356237664922126,-9.382011937570637
21480,Sergio`s Fishy,1,outlier,39.356142460128375,-9.38150123974784
38870,Lillian`s Fishy,0,outlier,38.96362165966478,-9.417980086010692
8979,Rosa`s Fishy,0,outlier,39.35647317021053,-9.38180336870318
8642,Kenny`s Fishy,1,outlier,39.35674957750394,-9.381000755300931
30310,Pattie`s Fishy,0,outlier,39.356011981331605,-9.381104685367731
28965,Tameka Conley,0,outlier,38.72485557033459,-9.167122899194592
31250,Henrietta`s Fishy,0,outlier,39.35755513749731,-9.38126628723471
3409,William`s Fishy,1,outlier,38.96380645727439,-9.416252475579054
8527,Trudy`s Fishy,0,outlier,39.356658854841264,-9.381093565535611
3090,Edward`s Fishy,1,outlier,38.96235214423792,-9.417758805076488
8107,Sherri`s Fishy,0,outlier,39.35666208239951,-9.381433914668923
6335,Jennifer Shaffer,0,outlier,38.74770157939338,-9.173165974422671
4942,Salvatore Bremmer,1,outlier,38.76481786575812,-9.211583702951962
10154,Marc Chambers,1,outlier,38.78529606879845,-9.172610841777724
43171,Roger`s Fishy,1,outlier,39.35722773074178,-9.381824804071426
35249,Kathryn Pickel,0,outlier,38.76142719936873,-9.20651565624668
20811,Barbara`s Fishy,0,outlier,38.96361398746231,-9.416568309478604
36116,Vesta`s Fishy,0,outlier,38.963465895472055,-9.41775216415622
28839,Clifford`s Fishy,1,outlier,38.96294424524309,-9.416396041976762
45830,Frank`s Fishy,1,outlier,39.35706423200477,-9.38208598554098
20990,Robert Gittens,1,outlier,38.76324260181663,-9.095287618453956
12607,Lupe`s Fishy,0,outlier,38.96312661426876,-9.416551213759885
15721,Rodolfo`s Fishy,1,outlier,38.96259329914768,-9.416120883181268
41309,Robert Stokes,1,outlier,38.74888124283927,-9.173870547072276
28269,Martha`s Fishy,0,outlier,38.96356452926424,-9.417186055513923
40273,Newton`s Fishy,1,outlier,38.96245353888407,-9.41703818560895
27055,Sandy`s Fishy,1,outlier,39.356092155559146,-9.381312397141867
33017,Corey`s Fishy,1,outlier,38.962474964488266,-9.41701122219624
32840,Brian`s Fishy,1,outlier,39.35632595635487,-9.382239251748135
48108,Helene`s Fishy,0,outlier,38.963030253400106,-9.417640524678024
6597,John`s Fishy,1,outlier,39.35602342005024,-9.380952533529792
22171,Minnie`s Fishy,0,outlier,38.96393232056424,-9.416340851756264
27524,Felix`s Fishy,1,outlier,39.35576074039529,-9.38163569177559
19934,Jack`s Fishy,1,outlier,39.356790966944,-9.380785130623575
6856,Helena`s Fishy,0,outlier,39.35572725798843,-9.38107915948511
1366,Tom`s Fishy,1,outlier,38.9631625545037,-9.417218448145393
36798,Kelly Garcia,0,outlier,38.71347019621003,-9.212820177790258
42834,Bryan`s Fishy,1,outlier,39.356693457687605,-9.381939808762578
6583,Margaret Miley,0,outlier,38.73379113090599,-9.205249956700095
16597,Jennifer Douglas,0,outlier,38.74888263943712,-9.172344928201772
27981,Joseph`s Fishy,1,outlier,38.96375559579535,-9.417918958851716
5011,Bruce`s Fishy,1,outlier,38.96344672076236,-9.41711768039281
43510,Jay`s Fishy,1,outlier,39.35716981722087,-9.380899718666978
32373,Karin`s Fishy,0,outlier,39.35642052518624,-9.3815081856591
20841,Philip`s Fishy,1,outlier,38.96262685828484,-9.417179795589876
18824,Wendy`s Fishy,0,outlier,38.9640812895117,-9.417139848571452
10233,Elizabeth`s Fishy,0,outlier,38.96348789555616,-9.417434200009994
14267,Paulina Miller,0,outlier,38.76184254751907,-9.148415696724465
40260,Scott`s Fishy,1,outlier,38.96312794603145,-9.417171332279782
46922,Ruth`s Fishy,0,outlier,39.356264479510095,-9.38163707844389
4974,Greg`s Fishy,1,outlier,39.35753069537036,-9.381717454245068
28291,Harold`s Fishy,1,outlier,39.357483477663735,-9.381620642274688
6692,Darren`s Fishy,1,outlier,38.96416401471517,-9.417934622914032
45542,Richard`s Fishy,1,outlier,39.356890831190725,-9.380721575618924
29501,Kenneth Hidinger,1,outlier,38.70861930219153,-9.150272676303128
45898,Dolores`s Fishy,0,outlier,39.35566164920806,-9.381221841157496
37824,Maria`s Fishy,0,outlier,39.3557563919513,-9.38123465952229
8414,Gary Hickson,1,outlier,38.77297182172645,-9.177144205031125
35848,James`s Fishy,1,outlier,39.35619395002991,-9.380556734862086
47527,Laura`s Fishy,0,outlier,39.35750101404003,-9.380444517226168
28851,Teresa`s Fishy,0,outlier,39.35660030015197,-9.382211672512954
35715,Johnnie`s Fishy,1,outlier,39.35646488697937,-9.380518887037455
27664,David`s Fishy,1,outlier,38.9626591900378,-9.416482843576675
37536,Joseph`s Fishy,1,outlier,39.35593333533792,-9.381453118788848
45587,Teresa`s Fishy,0,outlier,39.357176930728734,-9.380911009001151
38478,Mary`s Fishy,0,outlier,39.35654129404234,-9.380793518961497
47715,Robert`s Fishy,1,outlier,39.35587345800264,-9.382063214906486
42800,Andrew Norsworthy,1,outlier,38.74463886903063,-9.212699926236352
3674,Linda`s Fishy,0,outlier,38.96235350778717,-9.416601434306758
12286,Wendy`s Fishy,0,outlier,38.96386548184011,-9.41705450316898
12614,Janice`s Fishy,0,outlier,38.962800212656056,-9.418075769528794
29811,Helen Pichette,0,outlier,38.781345266427245,-9.17266675015698
3373,Seth`s Fishy,1,outlier,39.35750817197884,-9.381705250713583
485,John`s Fishy,1,outlier,39.35729215040983,-9.38096918602763
23627,Brittany`s Fishy,0,outlier,38.963728138833474,-9.417970172847486
46718,Keith`s Fishy,1,outlier,39.355958221152,-9.380610323021234
31584,Alvaro`s Fishy,1,outlier,39.35675941780057,-9.380989796890908
10647,Diane`s Fishy,0,outlier,38.962619111413815,-9.416973671014228
29635,Rudy`s Fishy,1,outlier,38.96231246610346,-9.417406191959044
28355,Denise`s Fishy,0,outlier,39.35738100847077,-9.381655718485003
25036,Marian`s Fishy,0,outlier,38.96286315525979,-9.417450079471902
5979,Tyisha`s Fishy,0,outlier,39.357502237234094,-9.382115396340152
38226,Kelly`s Fishy,0,outlier,38.962322621236574,-9.417986991383271
41132,Thomas`s Fishy,1,outlier,39.35620932287652,-9.381522313176012
25199,Elizabeth Koepsell,0,outlier,38.73816041022763,-9.17641721930683
18817,Ralph`s Fishy,1,outlier,38.96289454949702,-9.41792119625696
45015,Kelly`s Fishy,0,outlier,39.35688603596176,-9.381793767492493
4584,Matt`s Fishy,1,outlier,38.96316128895169,-9.416618112053154
30221,Robert`s Fishy,1,outlier,38.96275228256125,-9.418036712590135
3490,Rita`s Fishy,0,outlier,39.35732505009159,-9.381061187249578
11864,Roberto Tobler,1,outlier,38.73609657130626,-9.149415844233372
38294,Nina`s Fishy,0,outlier,38.96399163967845,-9.416123229204992
47220,Paul`s Fishy,1,outlier,38.96225298347439,-9.417758672838715
29784,Jerry`s Fishy,1,outlier,39.35654254290812,-9.381405237598395
20503,James`s Fishy,1,outlier,38.962359527900816,-9.41648729356489
5434,Teofila`s Fishy,0,outlier,38.96345088530117,-9.416681363800228
11557,Eric Jaramillo,1,outlier,38.76411057050888,-9.096224317019471
45676,Emilie`s Fishy,0,outlier,38.96324721568236,-9.41671382182856
49249,Elliott`s Fishy,1,outlier,38.96262166943436,-9.417704979672756
32862,Jerome`s Fishy,1,outlier,38.96288712569908,-9.416980081983068
27266,William`s Fishy,1,outlier,38.96252050078561,-9.41782606616242
39211,Samantha`s Fishy,0,outlier,38.96420606039329,-9.417408915849128
19042,Kathy`s Fishy,0,outlier,39.35744929221944,-9.381778541696766
2267,Robert Echeverria,1,outlier,38.71948243380346,-9.138031111364064
5503,William`s Fishy,1,outlier,39.35718260937546,-9.380981512519485
7237,Kenneth`s Fishy,1,outlier,38.963256837913896,-9.416755914108494
24741,Tarsha`s Fishy,0,outlier,38.96322681634752,-9.41755742610692
41936,Carla`s Fishy,0,outlier,39.35569731488446,-9.38093630023812
28466,Helen Barnes,0,outlier,38.76106301597886,-9.166808287745132
38479,David`s Fishy,1,outlier,39.35688340634637,-9.381527191498572
27900,Annette`s Fishy,0,outlier,38.96351819546477,-9.416701770000298
17773,Wendy`s Fishy,0,outlier,38.96324181133503,-9.417067379169692
17073,George`s Fishy,1,outlier,38.96266711993021,-9.416942638292698
36941,Daniel`s Fishy,1,outlier,39.35652471863716,-9.382193770361088
304,Allen`s Fishy,1,outlier,39.3569119743028,-9.380850516598445
35137,John`s Fishy,1,outlier,38.96394401207525,-9.417059899893326
16427,Elaine`s Fishy,0,outlier,38.96267997648531,-9.417341280202905
7391,Phyllis Madden,0,outlier,38.763975655186734,-9.094589335830651
46026,Gertrude`s Fishy,0,outlier,38.962695162198735,-9.417047132367586
4990,Ricky`s Fishy,1,outlier,39.35679562524962,-9.381264906731223
42199,Joan`s Fishy,0,outlier,38.96381112416012,-9.417027002000657
498,Daniel`s Fishy,1,outlier,39.357338573706365,-9.380872221135292
26345,Latoya`s Fishy,0,outlier,39.35703682942941,-9.380501428960834
219,`s Fishy,1,outlier,39.35702662361633,-9.38218920697739
15128,Jared`s Fishy,1,outlier,39.35709556911227,-9.380863481385443
43436,Marie`s Fishy,0,outlier,39.35584797026667,-9.38127197903933
12274,Thomas`s Fishy,1,outlier,39.35576645780949,-9.38140667218996
3653,Frederick`s Fishy,1,outlier,39.35751072686794,-9.38048494796375
31517,David`s Fishy,1,outlier,39.356746469668,-9.381151848862526
49116,Dale`s Fishy,1,outlier,39.35707300877597,-9.381736753356916
24939,Marcus Harris,1,outlier,38.73169242757652,-9.151816767035884
25220,John`s Fishy,1,outlier,39.35646715547777,-9.381258480301982
25324,Justin`s Fishy,1,outlier,39.35658110948398,-9.381929216646707
26730,Rebecca`s Fishy,0,outlier,39.357123471626736,-9.380919716110578
27532,Marion`s Fishy,0,outlier,38.96409794335252,-9.417348006990943
26945,Martha`s Fishy,0,outlier,39.35635752439797,-9.380428442527172
20530,Mike`s Fishy,1,outlier,38.96324259940955,-9.416374559291732
7898,David`s Fishy,1,outlier,39.35642216525664,-9.381399534038168
12108,Karen`s Fishy,0,outlier,39.35641835287461,-9.380643253847976
48316,Edna`s Fishy,0,outlier,38.963339421962935,-9.418067396348151
46592,Marc`s Fishy,1,outlier,38.96419779956888,-9.41806812670202
47072,Clara`s Fishy,0,outlier,38.96362787858551,-9.417648096604417
25944,Sylvia Johnson,0,outlier,38.76044011677029,-9.166937970459784
211,`s Fishy,0,outlier,39.35732345922949,-9.380868649207969
40081,Betty`s Fishy,0,outlier,39.35664973693476,-9.38192079955656
686,Jon`s Fishy,1,outlier,38.96268475750343,-9.417008818366442
5647,Juana`s Fishy,0,outlier,38.964210882771525,-9.41780103769446
16567,Shirley Doria,0,outlier,38.7717657045405,-9.211371708630892
27963,Jeanne Morgan,0,outlier,38.75973595072544,-9.166703581437204
2499,Micheal Ellington,1,outlier,38.74770629399776,-9.173714370154872
5789,Valerie`s Fishy,0,outlier,39.35663469744221,-9.380306732666686
21371,Patricia`s Fishy,0,outlier,39.357362588140624,-9.381427124543029
16067,Ruth Walston,0,outlier,38.76327587659712,-9.09502860982225
4692,Mark`s Fishy,1,outlier,38.963588462206346,-9.417898837925552
39915,Meagan`s Fishy,0,outlier,39.35675035247019,-9.381600929375397
22919,Melanie`s Fishy,0,outlier,39.35660106563344,-9.38037851613602
6078,Adrian`s Fishy,1,outlier,38.96229748198052,-9.417590144466851
15582,Jose`s Fishy,1,outlier,39.35593522040652,-9.38190103233716
49723,Nicholas`s Fishy,1,outlier,39.357031195534816,-9.382253475209888
30481,Donald`s Fishy,1,outlier,38.96408313321943,-9.417316699445982
34913,Amanda`s Fishy,0,outlier,38.96298964421753,-9.416647458744505
40279,Richard`s Fishy,1,outlier,39.35683227690654,-9.381597517682282
24749,Roy`s Fishy,1,outlier,38.96269189775744,-9.41739347335256
20741,Lewis`s Fishy,1,outlier,39.35657834624668,-9.381242102882094
1789,Felipe`s Fishy,1,outlier,39.3570857668773,-9.380656078466528
32939,Minerva`s Fishy,0,outlier,39.35744564325782,-9.381512446734954
4571,Betty Matson,0,outlier,38.73584104123606,-9.150357925296651
38700,Carolyn`s Fishy,0,outlier,39.35738068148339,-9.38040542276362
4133,Reid`s Fishy,1,outlier,39.355734171293705,-9.381636571504169
39748,Patrick`s Fishy,1,outlier,39.356218747817074,-9.38068494313476
16989,Ramon`s Fishy,1,outlier,39.35660397524456,-9.381589365796662
21936,Brian`s Fishy,1,outlier,38.96312330673056,-9.417953727151817
32971,Douglas`s Fishy,1,outlier,39.35683103232791,-9.38170664525099
49704,Orlando`s Fishy,1,outlier,39.35564827056008,-9.381165214186847
33747,Harold`s Fishy,1,outlier,38.9628113592972,-9.416139746170938
41150,Neil`s Fishy,1,outlier,38.96264817450261,-9.417334246775258
14810,Willie`s Fishy,1,outlier,38.964220736406354,-9.416500415564917
34150,Jerry`s Fishy,1,outlier,38.962334982601135,-9.416944119925557
44995,Araceli`s Fishy,0,outlier,39.35573132164215,-9.380725259600489
36877,Edward`s Fishy,1,outlier,39.35609278583634,-9.381484636485666
48642,Demetria Berri,0,outlier,38.736238680877925,-9.150390719643324
2715,June`s Fishy,0,outlier,38.96366500753041,-9.417299462894697
39801,Barbara`s Fishy,0,outlier,38.9637203722178,-9.41754506816346
3092,Richard`s Fishy,1,outlier,39.35664706677535,-9.382114791051375
10179,George Higuera,1,outlier,38.76075547303262,-9.167489451899886
3046,Olivia Brown,0,outlier,38.72679420477747,-9.187790365871315
15918,Cecil`s Fishy,1,outlier,38.963628531383264,-9.417178589059874
48431,Andrew Haas,1,outlier,38.74741225675215,-9.17336431853484
6576,Patrick`s Fishy,1,outlier,39.35694745177596,-9.380345703379838
12601,Marcel Langdon,1,outlier,38.716987742408016,-9.184441008358796
32586,Jeremy`s Fishy,1,outlier,38.96411371711935,-9.417296633352214
39232,William`s Fishy,1,outlier,39.35752475311228,-9.380798707666973
38403,Annie`s Fishy,0,outlier,38.9623115011394,-9.417972628544716
163,`s Fishy,0,outlier,39.35727449719274,-9.38200965835641
20854,Trisha`s Fishy,0,outlier,38.962401351068685,-9.417553265406932
47111,Gertrudis`s Fishy,0,outlier,38.964236942813095,-9.417514032296264
16923,Larry`s Fishy,1,outlier,39.35565416575172,-9.382018756331702
18962,Herta`s Fishy,0,outlier,38.96335104043763,-9.41678411127907
8056,Laura`s Fishy,0,outlier,39.35742982484005,-9.381243122582644
3714,David`s Fishy,1,outlier,39.355695123547896,-9.380466408423027
27441,Mark`s Fishy,1,outlier,39.3559682510651,-9.381629510121488
27136,Ron`s Fishy,1,outlier,38.96351466582196,-9.417648415463912
35330,Marilyn`s Fishy,0,outlier,38.96256617963552,-9.41655049143228
4104,Tanya`s Fishy,0,outlier,38.96314420775327,-9.41708526271463
3380,Samuel`s Fishy,1,outlier,38.964006094505365,-9.418047873980209
33034,Edward`s Fishy,1,outlier,38.96261632153729,-9.416632641747178
37501,Luz Jordan,0,outlier,38.75031542012408,-9.177497891621382
46397,Demetrius`s Fishy,1,outlier,39.35596909782871,-9.381656950006777
21917,Gillian`s Fishy,0,outlier,38.96355025772759,-9.417077174678829
3455,Diana`s Fishy,0,outlier,38.9628060209108,-9.41639787405386
31962,Louis`s Fishy,1,outlier,39.35730015053016,-9.381609226379952
7348,Kimberly`s Fishy,0,outlier,38.963229348045424,-9.417626248350569
16297,Ruth`s Fishy,0,outlier,39.3558287118365,-9.381424073787636
41124,Luis`s Fishy,1,outlier,39.35640755066286,-9.380420872217137
13460,Juanita`s Fishy,0,outlier,39.35759962280833,-9.380703371628398
14384,Berta`s Fishy,0,outlier,39.35715578014276,-9.380946952020713
35368,Edwina`s Fishy,0,outlier,38.96364279642869,-9.41754288110652
6322,Karen`s Fishy,0,outlier,38.96225962291697,-9.416151820724163
33929,Evelyn`s Fishy,0,outlier,39.356219727772114,-9.381806134802009
24705,Mario`s Fishy,1,outlier,38.96261843657817,-9.41694012604818
6559,Cyrus`s Fishy,1,outlier,39.35649370957002,-9.381325823385536
13242,Joseph`s Fishy,1,outlier,38.963701123403865,-9.417035443315102
15195,Teresa`s Fishy,0,outlier,39.35674857942067,-9.380350760045728
14322,Sean`s Fishy,1,outlier,39.35604030353782,-9.381320082373891
37261,Rubi`s Fishy,0,outlier,39.3571860145411,-9.380286235605473
25284,John Lemons,1,outlier,38.726978958137074,-9.136640631729504
30691,Barbara`s Fishy,0,outlier,38.96226990622058,-9.416772937956363
1467,Ruby`s Fishy,0,outlier,38.96237887623124,-9.416375559503866
25089,Michael`s Fishy,1,outlier,38.96231640985491,-9.417084646152466
2179,Daisy`s Fishy,0,outlier,38.96300547962434,-9.416972811960838
33494,Rita Tomas,0,outlier,38.72220391302709,-9.13808175060534
30901,Maria`s Fishy,0,outlier,39.35730152703251,-9.380888937106583
23326,Charles`s Fishy,1,outlier,39.357327855507805,-9.38172731520552
2528,Willis Brooks,1,outlier,38.72494913715538,-9.13967561880929
16695,Deborah Shinabarger,0,outlier,38.76054270031632,-9.1624640734877
23107,Ramiro`s Fishy,1,outlier,39.356367276518135,-9.3817859302849
27707,Margaret`s Fishy,0,outlier,38.96328471114087,-9.417182239677622
811,Beth`s Fishy,0,outlier,39.356679815521694,-9.382173726106542
12367,Grant Reed,1,outlier,38.747516591395176,-9.156660222775946
16239,Robert`s Fishy,1,outlier,38.96234743196968,-9.41794674740576
19034,Sarah`s Fishy,0,outlier,39.35577412685406,-9.380405264094184
32965,Lois`s Fishy,0,outlier,38.96247385409658,-9.417012330821107
13825,Kevin`s Fishy,1,outlier,38.962941738800815,-9.416093368293014
25956,William`s Fishy,1,outlier,38.96418393768846,-9.417897085628129
46379,Donna`s Fishy,0,outlier,38.96267895883978,-9.416537452051026
15171,James`s Fishy,1,outlier,38.96396120408255,-9.416488005201426
33233,Melanie`s Fishy,0,outlier,39.356104700785245,-9.381236225855806
35381,Cristy`s Fishy,0,outlier,39.35598273280184,-9.38034550841508
13115,Jennifer`s Fishy,0,outlier,38.96401365505776,-9.417489837945386
30773,Regina Juan,0,outlier,38.771107475007696,-9.200607069976984
28623,Shirley`s Fishy,0,outlier,39.356104444638646,-9.38080585823418
15712,Danielle`s Fishy,0,outlier,38.96368589008911,-9.41781940944936
44045,Lori`s Fishy,0,outlier,39.35711549165747,-9.381869387172886
39077,Derek`s Fishy,1,outlier,39.35590311523353,-9.381448914431363
48671,Brianna`s Fishy,0,outlier,39.35636740351329,-9.381085133641248
45697,Linda`s Fishy,0,outlier,39.35592008351449,-9.381561693931909
34354,Ernestine`s Fishy,0,outlier,38.962567674671,-9.417842671254885
9962,Linda`s Fishy,0,outlier,39.35735696214641,-9.381656201649518
39207,Cindy`s Fishy,0,outlier,39.35702349092134,-9.381021461347158
32579,Albert Rock,1,outlier,38.76359947336363,-9.094795797558591
32166,Patricia`s Fishy,0,outlier,39.35649802300112,-9.380620638304128
49090,Paul Walton,1,outlier,38.73663788561967,-9.14995191498893
30540,Jose Woods,1,outlier,38.73673382884245,-9.14930502564383
44599,Lisa Miller,0,outlier,38.760308162575285,-9.166522909967854
6170,Daniel Dupree,1,outlier,38.74790114952843,-9.173216281191303
43579,Werner`s Fishy,1,outlier,38.963807852904985,-9.417478721807806
36529,Charles`s Fishy,1,outlier,38.96422201092963,-9.417810428852208
25633,Weldon`s Fishy,1,outlier,39.356764008460566,-9.381089422652376
13164,Samuel`s Fishy,1,outlier,39.355753692615885,-9.38168166559434
1693,Bess`s Fishy,0,outlier,38.96409408575972,-9.416636731999557
35073,David`s Fishy,1,outlier,38.96240561362727,-9.416497815928013
46596,Luke`s Fishy,1,outlier,38.96247107749738,-9.417462598224152
48057,John`s Fishy,1,outlier,38.96320038064189,-9.416416604886098
25197,Emily`s Fishy,0,outlier,39.35667176042983,-9.381469580852352
44819,Robert`s Fishy,1,outlier,38.96345992728168,-9.417752268666096
10499,Lorenzo`s Fishy,1,outlier,38.96395601423844,-9.41778224947728
24331,Nancy`s Fishy,0,outlier,38.96263940130949,-9.41701596278653
39199,Curtis`s Fishy,1,outlier,39.35727431060875,-9.38219171617535
41367,Dolores`s Fishy,0,outlier,38.96258100170441,-9.417083593385264
20133,Paula`s Fishy,0,outlier,38.96378758873952,-9.417059786960266
1461,Alice`s Fishy,0,outlier,38.96376208550242,-9.416958959171495
19730,Jacqueline`s Fishy,0,outlier,38.963432269632655,-9.417358837968823
14622,Lori`s Fishy,0,outlier,38.9629453716712,-9.417789470014345
26862,Robert`s Fishy,1,outlier,38.96391147147621,-9.4168139861672
44059,Alexander`s Fishy,1,outlier,38.9628525513256,-9.417001537966762
49524,Karl`s Fishy,0,outlier,39.35721538599859,-9.381211620813003
19964,Joseph`s Fishy,1,outlier,39.356049144253824,-9.380893465429224
17197,Alma`s Fishy,0,outlier,38.96352163092617,-9.416693024715942
24720,George`s Fishy,1,outlier,38.96303806059058,-9.41737079634715
14534,Iris`s Fishy,0,outlier,38.96385081697207,-9.416170916244182
3506,Richard`s Fishy,1,outlier,39.356343930703865,-9.380446974390736
48959,Kathleen`s Fishy,0,outlier,38.96362882668589,-9.417968365790076
26834,Christopher`s Fishy,1,outlier,38.9640140969248,-9.417628647269792
43916,Sallie`s Fishy,0,outlier,39.357344572980026,-9.380957654088816
7149,Patricia Lalley,0,outlier,38.75940232260365,-9.192913380487386
11809,Lisa`s Fishy,0,outlier,38.9625942313355,-9.416839132546029
45297,Cheryll`s Fishy,0,outlier,39.35599705266663,-9.38033319600368
40938,John`s Fishy,1,outlier,39.355678893500325,-9.38045802588858
14800,Bradley`s Fishy,1,outlier,39.35751300714896,-9.381665819966733
10094,Alisha`s Fishy,0,outlier,38.96335952348778,-9.41768856644137
24125,John Lapp,1,outlier,38.735791338992655,-9.162338331491489
21007,Scott Burch,1,outlier,38.71508484010016,-9.190997361314516
39430,Ann`s Fishy,0,outlier,38.963796702899536,-9.417756101773106
31271,Irma`s Fishy,0,outlier,39.35653528858419,-9.381143839362618
28586,Dorothy`s Fishy,0,outlier,39.356979239130006,-9.381864972115716
17668,Robert`s Fishy,1,outlier,39.35582815379482,-9.380672880770677
45222,Willie`s Fishy,1,outlier,38.96298890706158,-9.417203822578154
13019,Donna Armstrong,0,outlier,38.767409640071655,-9.17123620937294
9503,Maxine`s Fishy,0,outlier,39.35736373970665,-9.380652355558745
23690,John`s Fishy,1,outlier,38.96398016848556,-9.416163039232163
17549,Joseph`s Fishy,1,outlier,39.35727901481868,-9.381492050640256
29289,Theodore`s Fishy,1,outlier,39.35583538814495,-9.380386687738902
33464,Carol`s Fishy,0,outlier,39.35724746518861,-9.380965289154943
45983,Hermina Collier,0,outlier,38.76022575488499,-9.166159858592229
41862,Marian`s Fishy,0,outlier,39.35705001595854,-9.380950990422834
32156,Charles`s Fishy,1,outlier,38.96341649019899,-9.417647343344894
33659,Vera`s Fishy,0,outlier,38.96350197559659,-9.417987732676645
44904,Sandra`s Fishy,0,outlier,38.96327357582481,-9.417625586942094
24463,Stephanie`s Fishy,0,outlier,39.35745295822572,-9.381590371243057
12487,Derrick`s Fishy,1,outlier,38.96286945539692,-9.41696690682641
14727,Tyler`s Fishy,1,outlier,38.96417879355173,-9.417103307551262
46634,Kendra`s Fishy,0,outlier,39.35670215453322,-9.380771485734032
20914,Anna`s Fishy,0,outlier,39.3564285102242,-9.381396718073384
47481,Helen Foust,0,outlier,38.729806622960986,-9.13531852610268
32480,Barbara Kehew,0,outlier,38.73421884355688,-9.172394199573612
41469,Joseph Bone,1,outlier,38.73550535233748,-9.149773420896135
20179,Annie Gaylor,0,outlier,38.7242447131601,-9.158631586064068
17304,Robert Bonilla,1,outlier,38.76006174162841,-9.174431367291104
27735,Walter Case,1,outlier,38.765053546556594,-9.188966439431606
1972,William Willis,1,outlier,38.76306398716172,-9.095180025188728
35933,Dustin Shephard,1,outlier,38.72521241694131,-9.148147980767025
29409,Renee Jernigan,0,outlier,38.74870498112683,-9.172245227041971
11091,Terrence Carter,1,outlier,38.75924303153469,-9.166444452180112
49721,Michael Polston,1,outlier,38.75949134234837,-9.166128935364949
2654,Phillip Bain,1,outlier,38.71731412748156,-9.177212957328342
26248,Michael Jenkins,1,outlier,38.74762542633019,-9.172921807428022
29941,Mark Nordquist,1,outlier,38.73697638411012,-9.15072147586089
43907,Sondra Amick,0,outlier,38.764465935954455,-9.094705434891337
47804,Aaron Jones,1,outlier,38.74402536325478,-9.14407327999094
38184,Matthew Bibber,1,outlier,38.73551505875907,-9.14904259231689
16318,Louise Lovelace,0,outlier,38.73664154439535,-9.129894131237048
30336,Jesus Jost,1,outlier,38.73737748209133,-9.15034696984324
46610,Charles Armstead,1,outlier,38.78307548037381,-9.125488314662231
195,Janee Strayhorn,0,outlier,38.74306016217332,-9.12916577657956
1790,Clarence Braun,1,outlier,38.70884931933159,-9.180455358644656
37956,Brendon Robinson,1,outlier,38.76018865840528,-9.166801977496233
10924,Carol Place,0,outlier,38.77803142213389,-9.179789224484226
450,Thomas Adams,1,outlier,38.7482550096105,-9.173703056855928
12567,Melissa Dyer,0,outlier,38.73141456209005,-9.182216246013844
14265,Willie Schmitz,0,outlier,38.76153080320351,-9.1185890785782
12996,Corey Zeiler,1,outlier,38.7549574217312,-9.191012825296982
9138,Beverly Galbo,0,outlier,38.76317588456158,-9.094420381661225
24527,Frank Mooneyhan,1,outlier,38.73932761871587,-9.18550660913152
5846,Alan Ho,1,outlier,38.749110255293935,-9.172503432620475
47967,Melissa Lewis,0,outlier,38.74641291288102,-9.118953271536771
19238,Clare Stewart,0,outlier,38.736891060925856,-9.150105084729102
46007,Jessica Ramirez,0,outlier,38.74761059144251,-9.173675879621127
10778,Frances Wooten,0,outlier,38.74581673099302,-9.160469371218998
22138,Keith Olinger,1,outlier,38.73688929847448,-9.149544182763822
42777,Laura Silvas,0,outlier,38.76404363422001,-9.095913203332994
14846,Joseph Reed,1,outlier,38.76444606910231,-9.095776122992534
46065,Joseph Smith,1,outlier,38.76016911612076,-9.166560624039338
10529,Mary Morris,0,outlier,38.7298641771141,-9.189875362526848
6938,Glenn Andrews,1,outlier,38.72401290780439,-9.191701976429403
24442,Margarita Wilder,0,outlier,38.73986456674393,-9.128062304642905
42302,Jane Risch,0,outlier,38.76466199334681,-9.094552175907564
21878,Sharon Healy,0,outlier,38.74983323654831,-9.165821704704086
10199,Floyd Cox,1,outlier,38.75094400841428,-9.197343975449876
10472,Zachary Sanchez,1,outlier,38.76986829892425,-9.175559782539295
38543,Marilyn Louis,0,outlier,38.76867977851983,-9.19561278500536
15678,Richard Buck,1,outlier,38.76312344273547,-9.146717105627094
22608,Janett Swee,0,outlier,38.71993085819712,-9.183859608535904
36268,Norman Grace,1,outlier,38.73327298712474,-9.19286075681738
42045,Ronald Ward,1,outlier,38.74281348956793,-9.145510827166753
10804,Frank Swift,1,outlier,38.72654870937264,-9.20339196426062
2369,Janet Mills,0,outlier,38.75646818569937,-9.18559123213938
9107,Mildred Pena,0,outlier,38.73610285413251,-9.182879038851729
22729,Cristine Bartley,0,outlier,38.74102048874983,-9.1378053672508
3680,Maurice Kim,1,outlier,38.738774367544686,-9.15343172368207
6804,Troy Smith,1,outlier,38.747455315151775,-9.17639581890298
18354,Vernon Smith,1,outlier,38.72386749837474,-9.204162333360376
45252,Kyle Vincent,1,outlier,38.72858689390461,-9.151214158805992
27388,Denise Houston,0,outlier,38.73084388794448,-9.141371641153828
45912,Cesar Summers,1,outlier,38.7357518183683,-9.192926291957374
1820,Thomas Alston,1,outlier,38.73749182969885,-9.13315589561319
13211,Shirley Hurtubise,0,outlier,38.72433339285765,-9.178806981914326
32804,Robert Sanders,1,outlier,38.71884668109672,-9.144358976350691
