customer_id,customer_name,customer_gender,customer_age,kids_home,teens_home,number_complaints,distinct_stores_visited,lifetime_spend_groceries,lifetime_spend_electronics,typical_hour,lifetime_spend_vegetables,lifetime_spend_nonalcohol_drinks,lifetime_spend_alcohol_drinks,lifetime_spend_meat,lifetime_spend_fish,lifetime_spend_hygiene,lifetime_spend_videogames,lifetime_spend_petfood,lifetime_total_distinct_products,percentage_of_products_bought_promotion,year_first_transaction,loyalty_card_number,latitude,longitude,total_lifetime_spend,percentage_lifetime_spend_groceries,percentage_lifetime_spend_electronics,percentage_lifetime_spend_fish,percentage_lifetime_spend_vegetables,percentage_lifetime_spend_nonalcohol_drinks,percentage_lifetime_spend_alcohol_drinks,percentage_lifetime_spend_meat,percentage_lifetime_spend_hygiene,percentage_lifetime_spend_videogames,percentage_lifetime_spend_petfood,avg_spend_per_store,loyalty_years,degree,cluster_ward
23937,Evelyn Calico,0,55,0.0,1.0,1.0,3.0,3097.0,4073.0,10.0,301.0,852.0,1731.0,446.0,2347.0,1306.0,1504.0,2018.0,1282.0,0.1361682157061046,2009.0,1,38.7174310244228,-9.165104775881414,17675.0,0.1752192362093352,0.2304384724186704,0.1327864214992928,0.017029702970297,0.0482036775106082,0.0979349363507779,0.0252333804809052,0.0738896746817538,0.085091937765205,0.1141725601131541,5891.666666666667,15.0,0,Diversifiers
15019,Joyce Bowman,0,61,1.0,0.0,0.0,3.0,5164.0,448.0,7.0,411.0,598.0,1202.0,1931.0,708.0,2410.0,817.0,2170.0,903.0,0.3834562613322854,2005.0,1,38.77213731681731,-9.14640330870182,15859.0,0.3256195220379595,0.0282489438173907,0.0446434201399836,0.0259158837253294,0.0377072955419635,0.07579292515291,0.1217605145343338,0.1519641843748029,0.0515164890598398,0.1368308216154865,5286.333333333333,19.0,0,Diversifiers
42461,Judith Gazaille,0,77,1.0,1.0,1.0,2.0,1996.0,2138.0,9.0,295.0,950.0,456.0,1433.0,1677.0,2279.0,1237.0,2052.0,1014.0,0.2504348834297896,2008.0,0,38.7586036830544,-9.151415365200712,14513.0,0.1375318679804313,0.1473161992696203,0.1155515744504926,0.0203266037345827,0.0654585543995038,0.0314201061117618,0.0987390615310411,0.1570316268173361,0.0852339282023013,0.1413904775029284,7256.5,16.0,0,Diversifiers
18510,Elizabeth Blankenship,0,55,0.0,0.0,0.0,2.0,3338.0,580.0,10.0,268.0,746.0,700.0,1458.0,2071.0,2105.0,1218.0,2317.0,1051.0,0.1392924351246277,2005.0,1,38.74697208725649,-9.122879083596436,14801.0,0.2255253023444361,0.039186541449902,0.1399229781771502,0.0181068846699547,0.0504019998648739,0.0472941017498817,0.0985068576447537,0.1422201202621444,0.0822917370447942,0.1565434767921086,7400.5,19.0,0,Diversifiers
35254,Brian Leonard,1,75,0.0,0.0,1.0,2.0,4832.0,2186.0,8.0,216.0,593.0,560.0,1022.0,1980.0,1742.0,1019.0,2418.0,727.0,0.22850994624073,2008.0,1,38.728058848512894,-9.134257930897396,16568.0,0.2916465475615644,0.1319410912602607,0.119507484307098,0.0130371801062288,0.0357918879768227,0.0338000965717044,0.0616851762433606,0.1051424432641236,0.0615041042974408,0.1459439884113954,8284.0,16.0,0,Diversifiers
49813,Erica Hasan,0,74,1.0,1.0,1.0,2.0,4100.0,4080.0,7.0,405.0,473.0,1312.0,1307.0,1650.0,1922.0,1280.0,1926.0,21.0,0.2388454262249015,2001.0,0,38.72443166173016,-9.184043637844718,18455.0,0.2221620157138986,0.2210782985640747,0.0894066648604714,0.0219452722839338,0.0256299105933351,0.0710918450284475,0.0708209157409916,0.1041452180980764,0.0693578975887293,0.1043619615280411,9227.5,23.0,0,Diversifiers
22350,Dallas Taylor,1,34,1.0,1.0,2.0,2.0,7082.0,1301.0,11.0,199.0,235.0,1563.0,878.0,1878.0,1734.0,929.0,2030.0,1972.0,0.3166292663051073,2013.0,1,38.74457192345222,-9.117971706870652,17829.0,0.3972180155925739,0.0729710022996242,0.105334006394077,0.011161590666891,0.0131807728980873,0.0876661618711088,0.0492456110830669,0.0972572774692916,0.0521061192439284,0.1138594424813506,8914.5,11.0,0,Diversifiers
9042,Carrie Mccarthy,0,33,0.0,0.0,0.0,2.0,5852.0,6564.0,13.0,395.0,349.0,644.0,594.0,538.0,881.0,1173.0,393.0,874.0,0.0798068983351388,2017.0,1,38.76415460698299,-9.09538125734367,17383.0,0.3366507507334752,0.3776103089225105,0.0309497785192429,0.0227233503998159,0.0200770868089512,0.0370476902721049,0.0341713168037738,0.0506817005119944,0.0674797215670482,0.0226082954610826,8691.5,7.0,2,Diversifiers
35051,Jorge Hernandez,1,34,1.0,0.6,0.0,1.0,7279.0,5624.0,6.0,332.0,273.0,435.0,610.0,819.0,571.0,1318.0,1058.0,939.0,0.3781429768500193,2017.0,0,38.76429293411962,-9.09587367472291,18319.0,0.3973470167585567,0.3070036574048801,0.0447076805502483,0.0181232600032752,0.0149025601834161,0.0237458376548938,0.0332987608493913,0.0311698236803318,0.0719471586877013,0.0577542442273049,18319.0,7.0,0,Diversifiers
39132,Marjorie Nemoede,0,38,1.0,1.0,1.0,3.0,4672.0,2375.0,8.0,394.0,942.0,733.0,941.0,2458.0,2265.0,1253.0,2496.0,0.0,0.4427329931397319,2005.0,1,38.73983133336734,-9.15494223274941,18529.0,0.2521452857682552,0.1281774515624156,0.132656916185439,0.0212639645960386,0.0508392249986507,0.0395596092611581,0.0507852555453613,0.1222408117005774,0.067623724971666,0.1347077554104377,6176.333333333333,19.0,0,Diversifiers
46314,Casey Kelly,1,68,1.0,1.0,1.0,1.0,6384.0,4439.0,12.0,323.0,803.0,785.0,1057.0,2727.0,2506.0,1121.0,1791.0,1593.0,0.2144702234327338,2001.0,0,38.75497828854094,-9.191301615483244,21936.0,0.2910284463894967,0.2023614150255288,0.124316192560175,0.0147246535375638,0.036606491611962,0.0357859226841721,0.0481856309263311,0.1142414296134208,0.0511032093362509,0.0816466083150984,21936.0,23.0,0,Diversifiers
16781,Ernest Deardorff,1,27,0.0,0.0,0.0,1.0,8721.0,3747.0,13.0,202.0,375.0,482.0,840.0,982.0,837.0,763.0,435.0,1020.0,0.1182744238143324,2016.0,1,38.74743571925879,-9.173591768787231,17384.0,0.5016682006442706,0.2155430280717901,0.0564887252646111,0.0116198803497468,0.0215715600552231,0.0277266451909802,0.0483202945236999,0.0481477220432581,0.0438909341923607,0.0250230096640589,17384.0,8.0,2,Diversifiers
21840,Kenneth Rust,1,29,2.0,1.0,0.0,2.0,5497.0,564.0,6.0,350.0,357.0,13.0,1181.0,1508.0,2261.0,986.0,1799.0,1383.0,0.233368629998878,2018.0,1,38.71662190844516,-9.165873071749884,14516.0,0.3786855883163406,0.0388536786993662,0.1038853678699366,0.0241113254340038,0.0245935519426839,0.0008955635161201,0.081358500964453,0.1557591623036649,0.0679250482226508,0.1239322127307798,7258.0,6.0,0,Diversifiers
22643,Brittany Mayo,0,79,1.0,1.0,2.0,2.0,4125.0,2224.0,7.0,384.0,601.0,807.0,849.0,1319.0,2328.0,1001.0,1738.0,1743.0,0.0284573541562302,2003.0,1,38.76097103185597,-9.142679041128549,15376.0,0.2682752341311134,0.1446409989594172,0.0857830385015608,0.0249739854318418,0.0390868886576482,0.0524843912591051,0.0552159209157128,0.1514047866805411,0.0651014568158168,0.1130332986472424,7688.0,21.0,0,Diversifiers
23396,Jose Samson,1,27,0.0,0.0,0.0,2.0,2701.0,5405.0,19.0,558.0,459.0,413.0,571.0,901.0,494.0,934.0,907.0,242.0,0.1314629348453168,2015.0,1,38.76441690703406,-9.096106212322496,13343.0,0.2024282395263434,0.4050813160458667,0.0675260436183766,0.0418196807314696,0.0344000599565315,0.030952559394439,0.0427939743685827,0.0370231582102975,0.069999250543356,0.0679757176047365,6671.5,9.0,1,Diversifiers
39703,Donald Graves,1,75,0.0,1.0,1.0,3.0,4903.0,3139.0,8.0,328.0,279.0,381.0,1319.0,2069.0,2727.0,937.0,2126.0,78.0,0.2445801702677538,2010.0,1,38.77749547346131,-9.135916427574983,18208.0,0.2692772407732864,0.172396748681898,0.1136313708260105,0.0180140597539543,0.0153229349736379,0.0209248681898066,0.0724406854130052,0.1497693321616871,0.0514608963093145,0.1167618629173989,6069.333333333333,14.0,0,Diversifiers
10776,Johnathan Ayers,1,28,0.0,0.0,0.0,1.0,3114.0,2334.0,15.0,286.0,301.0,496.0,612.0,1437.0,1069.0,1066.0,520.0,593.0,0.2832705141714422,2017.0,1,38.76474717539532,-9.095698557691222,11235.0,0.27716955941255,0.2077436582109479,0.1279038718291054,0.0254561637739207,0.0267912772585669,0.0441477525589675,0.0544726301735647,0.0951490876724521,0.0948820649755229,0.0462839341344014,11235.0,7.0,2,Diversifiers
5338,Clarence Abernathy,1,38,1.0,1.0,1.0,1.0,3205.0,3427.0,9.0,393.0,585.0,702.0,756.0,2359.0,2500.0,775.0,2313.0,123.0,0.2295491710322346,2014.0,1,38.76326607137091,-9.16958657947026,17015.0,0.1883632089332941,0.2014105201292976,0.138642374375551,0.0230972671172494,0.0343814281516309,0.0412577137819571,0.0444313840728768,0.1469291801351748,0.0455480458419042,0.1359388774610637,17015.0,10.0,1,Diversifiers
14456,Glenn Lane,1,39,1.0,0.0,1.0,1.0,5938.0,399.0,14.0,274.0,947.0,1068.0,169.0,2045.0,2412.0,1273.0,1830.0,129.0,0.2902935942391986,2005.0,1,38.75713373203508,-9.190503980592442,16355.0,0.3630693977376949,0.0243962091103638,0.1250382146132681,0.016753286456741,0.0579027820238459,0.0653011311525527,0.0103332314276979,0.1474778355243045,0.077835524304494,0.1118923876490369,16355.0,19.0,2,Diversifiers
39959,Beatrice Walters,0,33,1.0,0.0,1.0,2.0,5996.0,1433.0,17.0,398.0,308.0,789.0,856.0,1973.0,2442.0,1051.0,1994.0,1055.0,0.416414805131166,2011.0,0,38.72822883290163,-9.173511670703148,17240.0,0.3477958236658933,0.0831206496519721,0.1144431554524361,0.0230858468677494,0.0178654292343387,0.0457656612529002,0.0496519721577726,0.1416473317865429,0.0609628770301624,0.115661252900232,8620.0,13.0,0,Diversifiers
18565,Cynthia Gandy,0,27,0.0,0.0,0.0,1.0,7238.0,4325.0,10.0,183.6,154.0,411.0,672.0,1075.0,691.0,1291.0,505.0,371.0,0.0883137702089037,2020.0,1,38.74857091749833,-9.173889953589327,16545.6,0.4374576926796248,0.2613988008896625,0.0649719562904941,0.0110966057441253,0.0093076104825452,0.0248404409631563,0.0406150275601972,0.0417633691132385,0.0780267865777004,0.0305217096992553,16545.6,4.0,3,Diversifiers
31437,Shane Hernandez,1,81,1.0,1.0,2.0,3.0,7299.0,666.0,17.0,214.0,574.0,1039.0,1258.0,1921.0,1836.0,499.0,2158.0,905.0,0.0300300388572292,2011.0,1,38.77165911292697,-9.131498753295002,17464.0,0.4179454878607421,0.0381355932203389,0.1099977095739807,0.0122537792029317,0.0328676133760879,0.059493815849748,0.0720338983050847,0.1051305542830966,0.0285730645900137,0.1235684837379752,5821.333333333333,13.0,0,Diversifiers
13597,Ellen Avila,0,53,2.0,0.0,1.0,2.0,5454.0,1757.0,7.0,358.0,688.0,328.0,1134.0,1101.0,2016.0,1444.0,1717.0,1154.0,0.279132764177578,2008.0,1,38.7184525451653,-9.158802554575612,15997.0,0.3409389260486341,0.1098330937050697,0.0688254047633931,0.0223791960992686,0.0430080640120022,0.0205038444708382,0.0708882915546665,0.1260236294305182,0.0902669250484465,0.1073326248671626,7998.5,16.0,2,Diversifiers
28137,Ellen Roberson,0,32,0.0,0.0,0.0,4.0,6222.0,5912.0,17.0,141.0,372.0,532.0,625.0,686.0,751.0,992.0,336.0,102.0,0.182273204477609,2020.0,0,38.73659883852616,-9.14991399845478,16569.0,0.3755205504254933,0.3568109119439918,0.0414026193493874,0.0085098678254571,0.0224515661778019,0.0321081537811575,0.037721045325608,0.0453256080632506,0.0598708431408051,0.0202788339670468,4142.25,4.0,0,Diversifiers
17715,Ruth Beaver,0,80,0.0,1.0,1.0,2.0,4229.0,4685.0,8.0,171.0,717.0,1072.0,217.0,2682.0,1799.0,663.0,2269.0,258.0,0.1467605581351899,2010.0,1,38.74313288394881,-9.140143269949876,18504.0,0.2285451794206658,0.2531884997838305,0.1449416342412451,0.0092412451361867,0.0387483787289234,0.057933419801124,0.0117271941201902,0.0972222222222222,0.0358300907911802,0.1226221357544314,9252.0,14.0,0,Diversifiers
27752,Reda Burke,0,28,0.0,0.0,0.0,1.0,5404.0,3101.0,13.6,476.0,284.0,325.0,561.0,804.0,643.0,665.0,837.0,547.0,0.4148080333626782,2017.0,0,38.75932338321319,-9.166963119286454,13100.0,0.4125190839694656,0.2367175572519084,0.0613740458015267,0.0363358778625954,0.0216793893129771,0.0248091603053435,0.042824427480916,0.0490839694656488,0.0507633587786259,0.0638931297709923,13100.0,7.0,0,Diversifiers
27379,Rebecca Shelton,0,32,0.0,0.0,0.0,1.0,6442.0,4295.0,9.0,461.0,384.0,507.0,1005.0,525.6,742.0,813.0,972.0,824.0,0.1445652958600697,2020.0,0,38.76348453726999,-9.094692919545086,16146.6,0.3989694424832472,0.2660002725031895,0.0325517446397383,0.0285509023571525,0.0237820965404481,0.0313997993385604,0.0622422057894541,0.0459539469609701,0.05035115751923,0.0601984318680093,16146.6,4.0,0,Diversifiers
25752,Aaron Urreta,1,65,1.0,1.0,1.0,2.0,5158.0,1071.0,9.0,278.0,544.0,568.0,1448.0,1599.0,2623.0,992.0,2834.0,69.0,0.3044892722641882,2007.0,1,38.7224296849981,-9.123614652621844,17115.0,0.3013730645632486,0.0625766871165644,0.0934268185801928,0.0162430616418346,0.0317849839322232,0.0331872626351153,0.0846041484078293,0.15325737657026,0.0579608530528775,0.1655857434998539,8557.5,17.0,0,Diversifiers
23964,Ruth Robbins,0,84,1.0,1.0,1.0,2.0,4815.0,725.0,7.0,336.0,809.0,744.0,908.0,2001.0,2811.0,1239.0,1900.0,737.0,0.3184185402963297,2009.0,1,38.736727314894985,-9.139355561364145,16288.0,0.2956164047151277,0.0445112966601178,0.1228511787819253,0.0206286836935167,0.049668467583497,0.0456777996070726,0.055746561886051,0.1725810412573674,0.0760682711198428,0.1166502946954813,8144.0,15.0,0,Diversifiers
49303,Donna Contreras,0,32,1.0,0.0,1.0,3.0,3698.0,4418.0,11.0,237.0,165.0,1640.0,1186.0,1906.0,2098.0,1152.0,2112.0,1448.0,0.3609523878483565,2010.0,0,38.71577297144548,-9.14918579798593,18612.0,0.198689017837954,0.2373737373737373,0.1024070492155598,0.0127337201805286,0.0088652482269503,0.0881151944981732,0.0637223296797765,0.112722974425102,0.0618955512572533,0.1134751773049645,6204.0,14.0,0,Diversifiers
33179,Lynette Mcclintock,0,61,0.0,0.0,2.0,3.0,4340.0,1857.0,11.0,294.0,525.0,1358.0,638.0,1609.0,2163.0,50.0,1909.0,1091.0,0.1716281444276436,2006.0,1,38.737257449266096,-9.120337163981844,14743.0,0.2943769924710032,0.1259580818015329,0.1091365393746184,0.0199416672319066,0.0356101200569761,0.0921115105473784,0.0432747744692396,0.1467136946347419,0.0033914400054263,0.1294851794071763,4914.333333333333,18.0,0,Diversifiers
3433,Mark Hopkins,1,40,2.0,0.0,2.0,2.0,5434.0,790.0,6.0,368.0,587.0,823.0,808.0,1971.0,2266.0,961.0,1705.0,634.0,0.3604051285123033,2005.0,1,38.75434176966328,-9.1892135957982,15713.0,0.3458282950423216,0.0502768408324317,0.1254375357983835,0.0234200980080188,0.037357601985617,0.0523770126646725,0.0514223891045631,0.1442117991472029,0.0611595494176796,0.108508877999109,7856.5,19.0,3,Diversifiers
39798,Mike Patterson,1,31,0.0,0.0,0.0,1.0,2934.0,4600.0,9.0,178.0,278.0,389.0,499.0,1071.0,603.0,1432.0,893.0,632.0,0.1571911078839952,2018.0,0,38.76438171958868,-9.095870764760564,12877.0,0.2278481012658227,0.3572260619709559,0.0831715461675856,0.0138230954414848,0.0215888793973751,0.0302088995884134,0.0387512619398928,0.0468276772540187,0.1112060262483497,0.0693484507261008,12877.0,6.0,0,Diversifiers
4072,Janell Street,0,35,1.0,0.0,1.0,2.0,3675.0,259.0,9.0,413.0,731.0,1045.0,1247.0,1633.0,1800.0,1253.0,2121.0,1538.0,0.3180904373195581,2010.0,1,38.737355648750494,-9.129860097295152,14177.0,0.2592226846300345,0.0182690272977357,0.1151865697961486,0.0291316921774705,0.0515623897862735,0.0737109402553431,0.0879593708118783,0.1269662128800169,0.0883825915214784,0.1496085208436199,7088.5,14.0,1,Diversifiers
44387,Lucy Donovan,0,29,1.0,0.0,0.0,1.0,6208.0,1729.0,7.0,427.0,278.0,570.0,114.0,840.0,1013.0,660.0,432.0,754.0,0.150248509849498,2014.0,0,38.74839441576631,-9.173630482103826,12271.0,0.5059082389373319,0.1409013120365088,0.0684540787221905,0.0347974900171135,0.0226550403390106,0.0464509819900578,0.0092901963980115,0.0825523592209274,0.0537853475674354,0.0352049547714122,12271.0,10.0,0,Diversifiers
28454,Sherry Rodriguez,0,59,0.0,1.0,1.0,1.0,4182.0,2611.0,12.0,317.0,558.0,875.0,1308.0,1480.0,2302.0,1061.0,1471.0,1592.0,0.1842873185905825,2008.0,1,38.73639368793526,-9.18523544641712,16165.0,0.258707083204454,0.1615218063717909,0.0915558304979894,0.0196102690999072,0.0345190225796473,0.0541292916795545,0.0809155583049799,0.1424064336529539,0.065635632539437,0.0909990720692855,16165.0,16.0,0,Diversifiers
8834,James Campbell,1,61,1.0,0.0,1.0,1.0,8431.0,1044.0,8.0,280.0,1070.0,892.0,1470.0,1485.0,1834.0,997.0,2334.0,122.0,0.1429938159784293,2007.0,1,38.72096902162329,-9.14967165307119,19837.0,0.425013862983314,0.0526289257448202,0.0748601098956495,0.014115037556082,0.0539396078035993,0.0449664767858043,0.0741039471694308,0.0924534959923375,0.050259615869335,0.1176589201996269,19837.0,17.0,1,Diversifiers
21865,Johnnie Goddard,0,27,0.0,0.0,0.0,1.0,5346.0,4220.0,10.0,329.0,468.0,353.0,950.0,548.0,1032.0,963.0,1493.0,974.0,0.3090358286190658,2016.0,1,38.74790565722041,-9.173311201865385,15702.0,0.3404661826518915,0.2687555725385301,0.0349000127372309,0.0209527448732645,0.0298051203668322,0.0224812125843841,0.0605018468984842,0.0657241115781429,0.061329766908674,0.0950834288625652,15702.0,8.0,3,Diversifiers
21282,Norma Crabtree,0,53,1.0,1.0,1.0,1.0,5357.0,1738.0,10.0,327.0,368.0,1426.0,649.0,2369.0,2068.0,899.0,1765.0,1056.0,0.3070459482434228,2010.0,1,38.73386375348277,-9.132202666362462,16966.0,0.3157491453495226,0.1024401744665802,0.1396322055876458,0.0192738418012495,0.0216904397029352,0.0840504538488742,0.0382529765413179,0.1218908405045385,0.0529883296003772,0.1040315925969586,16966.0,14.0,0,Diversifiers
11625,Gregg Mendez,1,29,0.0,0.0,0.0,1.0,7692.0,3046.0,7.0,395.0,204.0,486.0,604.0,1521.0,226.0,836.0,1292.0,381.0,0.2663839191536792,2018.0,1,38.7605308957206,-9.16681513703386,16302.0,0.471843945528156,0.1868482394798184,0.0933014354066985,0.0242301558091031,0.0125138019874861,0.0298122929701877,0.037050668629616,0.0138633296528033,0.0512820512820512,0.0792540792540792,16302.0,6.0,3,Diversifiers
38221,Milagros Patrick,0,37,1.0,1.0,1.0,2.0,4986.0,36.0,10.0,290.0,491.0,1141.0,573.0,1993.0,2790.0,1192.0,2146.0,864.0,0.1318030878506864,2010.0,1,38.769362405012025,-9.178724246758485,15638.0,0.3188387261798184,0.0023020846655582,0.1274459649571556,0.018544570916997,0.0313978769663639,0.0729632945389436,0.0366415142601355,0.1784115615807648,0.0762245811484844,0.1372298247857782,7819.0,14.0,0,Diversifiers
3054,Donald Denis,1,79,1.0,1.0,1.0,3.0,5740.0,1091.0,9.0,105.0,465.0,972.0,993.0,1750.0,2327.0,670.0,2159.0,1525.0,0.1375255084861584,2006.0,1,38.75319817692122,-9.170948438267631,16272.0,0.3527531956735497,0.0670476892822025,0.1075467059980334,0.006452802359882,0.0285766961651917,0.0597345132743362,0.0610250737463126,0.1430063913470993,0.0411750245821042,0.1326819075712881,5424.0,18.0,3,Diversifiers
47479,Jonathan Wilson,1,32,0.0,0.0,0.0,2.0,6785.0,5345.0,10.0,220.6,336.0,469.0,1047.0,901.0,207.0,822.0,840.0,369.0,0.2790355253960447,2014.0,0,38.76422693123015,-9.0953188302513,16972.6,0.3997619692916819,0.3149193405842358,0.0530855614343117,0.0129974193700434,0.0197966133650707,0.0276327728220779,0.0616876612893722,0.0121961278766953,0.0484310005538338,0.0494915334126769,8486.3,10.0,0,Diversifiers
905,Candy Dan,0,80,0.0,0.0,2.0,4.0,5202.0,2156.0,6.0,367.0,723.0,1221.0,1131.0,2079.0,1978.0,977.0,2220.0,72.0,0.0272728746136303,2003.0,1,38.73779281940944,-9.179373863608715,18054.0,0.288135593220339,0.1194195192201174,0.1151545363908275,0.0203279051733687,0.0400465270854104,0.0676304420073114,0.0626453971419076,0.1095602082640966,0.0541154314833277,0.1229644400132934,4513.5,21.0,1,Diversifiers
10697,James Schwein,1,70,1.0,1.0,0.0,2.0,5494.0,700.0,7.0,370.0,638.0,1407.0,1326.0,2099.0,1560.0,696.0,2419.0,592.0,0.1078818273136525,2002.0,1,38.734752567307694,-9.190261576978823,16709.0,0.3288048357172781,0.041893590280687,0.1256209228559459,0.0221437548626488,0.0381830151415404,0.0842061164641809,0.0793584295888443,0.0933628583398168,0.0416541983362259,0.1447722784128314,8354.5,22.0,3,Diversifiers
10399,Alice Rivera,0,28,0.0,0.0,0.0,1.0,6905.0,5320.0,18.0,178.0,305.0,475.0,898.0,877.0,1232.0,1066.0,785.0,343.0,0.1798013790539822,2019.0,1,38.75959416764685,-9.167474499701893,18041.0,0.3827393160024389,0.2948838756166509,0.048611496036805,0.0098664153871736,0.0169059364780222,0.0263289174657724,0.0497755113352918,0.0682888975112244,0.059087633723186,0.0435120004434344,18041.0,5.0,3,Diversifiers
13334,Peggy Miller,0,39,0.0,0.0,1.0,3.0,3880.0,2183.0,10.0,261.0,741.0,938.0,747.0,2761.0,2000.0,1111.0,1465.0,902.0,0.2245621429337972,2008.0,1,38.70942959472429,-9.139911331330142,16087.0,0.2411885373282775,0.1356996332442344,0.171629265866849,0.0162242804749176,0.0460620376701684,0.0583079505190526,0.0464350096351091,0.1243239883135451,0.0690619755081743,0.0910673214396717,5362.333333333333,16.0,1,Diversifiers
33400,Angelina Earnest,0,30,0.0,0.0,0.0,2.0,1452.0,869.0,17.0,330.0,212.0,492.0,682.0,935.0,359.0,860.0,809.0,692.0,0.3110338329847197,2020.0,0,38.73710067727189,-9.150468310040846,7000.0,0.2074285714285714,0.1241428571428571,0.1335714285714285,0.0471428571428571,0.0302857142857142,0.0702857142857142,0.0974285714285714,0.0512857142857142,0.1228571428571428,0.1155714285714285,3500.0,4.0,0,Diversifiers
10577,Bobbie Frederick,0,27,2.0,0.0,1.0,2.0,5619.0,1530.0,9.0,224.0,754.0,1072.0,430.0,1690.0,2273.0,1456.0,2192.0,585.0,0.2215674694762062,2020.0,1,38.7860000190394,-9.14216565145232,17240.0,0.3259280742459396,0.0887470997679814,0.0980278422273781,0.0129930394431554,0.0437354988399071,0.0621809744779582,0.0249419953596287,0.1318445475638051,0.0844547563805104,0.1271461716937355,8620.0,4.0,1,Diversifiers
24233,Norma Balcom,0,34,0.0,0.0,0.0,1.0,7134.0,4203.0,16.0,171.0,410.0,587.0,768.0,915.0,1051.0,1483.0,111.0,1041.0,0.2630206922321739,2017.0,1,38.73675645603978,-9.14999692368531,16833.0,0.4238103724826234,0.2496881126358937,0.0543575120299411,0.0101586170023168,0.0243569179587714,0.034871977662924,0.045624665834967,0.0624368799382165,0.0881007544703855,0.00659418998396,16833.0,7.0,2,Diversifiers
36405,Dustin Osborne,1,83,1.0,2.0,1.0,2.0,2586.0,898.0,10.0,370.0,673.0,432.0,1122.0,1500.0,1798.0,1312.0,2285.0,795.0,0.2293657398723497,2009.0,1,38.746708209111766,-9.182608185311784,12976.0,0.1992909987669543,0.0692046855733662,0.1155980271270037,0.0285141800246609,0.0518649815043156,0.033292231812577,0.0864673242909987,0.1385635018495684,0.1011097410604192,0.1760943279901356,6488.0,15.0,0,Diversifiers
16069,Edith Lindsay,0,33,0.0,0.0,0.0,1.0,6297.0,5081.0,13.0,293.0,163.0,509.0,640.0,748.0,274.0,295.0,1575.0,184.0,0.0177804101313377,2014.0,1,38.74922090791655,-9.17369080291246,15875.0,0.3966614173228346,0.3200629921259842,0.0471181102362204,0.0184566929133858,0.010267716535433,0.0320629921259842,0.0403149606299212,0.017259842519685,0.0185826771653543,0.0992125984251968,15875.0,10.0,2,Diversifiers
17146,George Rose,1,51,1.0,1.0,1.0,2.0,6887.0,3776.0,8.0,437.0,485.0,939.0,404.0,1476.0,2260.0,1050.0,2029.0,1220.0,0.3320274664633864,2009.0,1,38.74340407486193,-9.191333466910312,19743.0,0.3488324975940839,0.191257660943119,0.0747606746695031,0.022134427391987,0.0245656688446538,0.0475611609177936,0.0204629488932786,0.1144709517297269,0.0531834067770855,0.1027706022387681,9871.5,15.0,0,Diversifiers
38492,Concepcion Boren,0,33,0.0,0.0,0.0,1.0,5500.0,3534.0,17.0,303.0,165.0,528.0,1167.0,887.0,1035.0,919.0,512.0,162.0,0.3537111122123149,2016.0,0,38.76445939532869,-9.096331253315304,14550.0,0.3780068728522336,0.2428865979381443,0.0609621993127147,0.0208247422680412,0.011340206185567,0.0362886597938144,0.0802061855670103,0.0711340206185567,0.0631615120274914,0.0351890034364261,14550.0,8.0,0,Diversifiers
15452,Victor Kraft,1,30,0.0,0.0,0.0,1.0,5369.0,2940.0,12.0,234.0,336.0,434.0,474.0,1234.0,1002.0,1575.0,912.0,1493.0,0.2473689888069893,2017.0,1,38.76294974073355,-9.095543053903931,14510.0,0.3700206753962784,0.2026188835286009,0.0850447966919366,0.0161268090971743,0.0231564438318401,0.0299104066161268,0.0326671261199172,0.0690558235699517,0.1085458304617505,0.0628532046864231,14510.0,7.0,1,Diversifiers
5641,Marie Ocasio,0,38,1.0,1.0,1.0,2.0,3508.0,4413.0,7.0,242.0,974.0,1226.0,1150.0,2449.0,2115.0,681.0,2164.0,931.0,0.1094560215655774,2007.0,1,38.71674422804264,-9.134394406100531,18922.0,0.1853926646231899,0.2332205897896628,0.1294260648980023,0.0127893457351231,0.0514744741570658,0.0647923052531444,0.0607758165098826,0.1117746538420885,0.0359898530810696,0.1143642321107705,9461.0,17.0,1,Diversifiers
36923,Charles Berry,1,32,0.0,0.0,0.0,2.0,3805.0,3097.0,18.0,293.0,295.0,465.0,955.0,728.0,635.0,1191.0,429.0,409.0,0.2238652555853565,2019.0,0,38.73685971464074,-9.14974100909776,11893.0,0.3199360968637013,0.260405280417052,0.061212477928193,0.0246363407046161,0.0248045068527705,0.0390986294458925,0.0802993357437147,0.0533927520390145,0.1001429412259312,0.0360716387791137,5946.5,5.0,0,Diversifiers
35098,Gala Heft,0,73,1.0,1.0,1.0,2.0,1255.0,5633.0,10.0,234.0,374.0,1219.0,463.0,1816.0,1851.0,1093.0,2303.0,1327.0,0.1516356350218736,2002.0,1,38.77144890032722,-9.192621589327734,16241.0,0.0772735668985899,0.3468382488763007,0.1118157748907087,0.0144079798041992,0.0230281386614124,0.0750569546210208,0.0285080967920694,0.113970814605012,0.0672988116495289,0.1418016132011575,8120.5,22.0,0,Diversifiers
28762,Anthony Dusek,1,27,0.0,0.0,0.0,1.0,6783.0,4602.0,17.0,211.0,145.0,560.0,494.0,842.0,703.0,791.0,406.0,1246.0,0.1285402786587963,2015.0,0,38.7595283796698,-9.165714754059264,15537.0,0.4365707665572504,0.2961961768681213,0.0541932161936023,0.0135804852931711,0.0093325609834588,0.0360429941430134,0.0317950698333011,0.0452468301473901,0.0509107292270065,0.0261311707536847,15537.0,9.0,0,Diversifiers
12049,Murray Casano,1,45,1.0,1.0,1.0,2.0,4465.0,2891.0,17.0,491.0,1006.0,1033.0,1401.0,2309.0,1178.0,1405.0,1506.0,209.0,0.1626190843754253,2009.0,1,38.71859011466195,-9.124510992575736,17685.0,0.2524738478936952,0.1634718688153802,0.1305626236923946,0.0277636415040995,0.0568843652813118,0.0584110828385637,0.0792196776929601,0.0666101215719536,0.0794458580718122,0.0851569126378286,8842.5,15.0,2,Diversifiers
30987,Mary Uy,0,41,1.0,1.0,1.0,3.0,5485.0,2430.0,8.0,529.0,671.0,1110.0,1181.0,2812.0,1467.0,934.0,2467.0,378.0,0.1658491970295038,2003.0,1,38.77329756033935,-9.138090348639352,19086.0,0.2873834224038562,0.1273184533165671,0.1473331237556324,0.027716650948339,0.0351566593314471,0.0581578120088022,0.0618778162003562,0.0768626218170386,0.0489363931677669,0.1292570470501938,6362.0,21.0,0,Diversifiers
4375,John Miller,1,54,2.0,0.0,0.0,2.0,5711.0,394.0,9.0,27.0,768.0,970.0,980.0,1614.0,2191.0,754.0,1910.0,1667.0,0.1881080896448961,2007.0,1,38.76222281188995,-9.150199250754683,15319.0,0.3728050133820745,0.0257196944970298,0.1053593576604217,0.0017625171355832,0.0501338207454794,0.0633200600561394,0.0639728441804295,0.1430250016319603,0.0492199229714733,0.1246817677394085,7659.5,17.0,1,Diversifiers
9242,Erica Elzey,0,63,0.0,1.0,1.0,2.0,8549.0,4087.0,12.0,410.0,832.0,19.0,1152.0,1594.0,1428.0,1612.0,2204.0,320.0,0.2099032664210935,2006.0,1,38.73430510425173,-9.157302637678896,21887.0,0.390597158130397,0.1867318499565952,0.072828619728606,0.0187325809841458,0.0380134326312422,0.0008680952163384,0.0526339836432585,0.0652442088911225,0.0736510257230319,0.100699045095262,10943.5,18.0,2,Diversifiers
25747,George Oneal,1,72,1.0,1.0,1.0,2.0,4260.0,2698.0,8.0,450.0,371.0,1029.0,1509.0,2578.0,2028.0,1429.0,2217.0,533.0,0.0902741651935941,2005.0,1,38.75393395152834,-9.14915803012657,18569.0,0.2294146157574452,0.1452959233130486,0.1388335397705853,0.0242339382842371,0.0199795357854488,0.0554149388766223,0.0812644730464753,0.1092142818676288,0.0769562173514998,0.1193925359470084,9284.5,19.0,0,Diversifiers
36625,Dennis Peterson,1,81,1.0,1.0,1.0,2.0,3834.0,2115.0,8.0,266.0,598.0,833.0,1924.0,1676.0,1987.0,1715.0,1666.0,966.0,0.2466297700647136,2011.0,1,38.70916657897157,-9.156594254622105,16614.0,0.2307692307692307,0.1273022751895991,0.1008787769351149,0.0160105934753822,0.0359937402190923,0.0501384374623811,0.1158059467918622,0.1195979294570843,0.1032261947754905,0.1002768749247622,8307.0,13.0,0,Diversifiers
27799,Bonnie Kresge,0,58,1.0,1.0,0.0,2.0,6008.0,2351.0,10.0,225.0,844.0,799.0,845.0,1588.2,2168.0,576.0,1744.0,738.0,0.2588527240704567,2006.0,1,38.712004462941344,-9.121916605029773,17148.2,0.3503574719212512,0.1370989374978131,0.0926161346380378,0.0131209106495142,0.0492179937252889,0.0465938115953861,0.0492763088837312,0.1264272635028749,0.0335895312627564,0.1017016363233458,8574.1,18.0,0,Diversifiers
47535,Thomas Diaz,1,32,0.0,0.0,0.0,1.0,1779.0,4286.0,8.0,186.0,214.0,470.0,535.0,1083.0,251.0,558.0,383.0,222.0,0.1269691127108644,2015.0,0,38.73622935148288,-9.149474818526937,9745.0,0.1825551564905079,0.4398152898922524,0.1111339148281169,0.0190867111339148,0.0219599794766546,0.0482298614674191,0.0548999486916367,0.0257567983581323,0.0572601334017444,0.0393022062596203,9745.0,9.0,0,Diversifiers
12719,Kevin Varella,1,29,0.0,0.0,0.0,1.0,3477.0,385.0,14.0,427.0,391.0,511.0,788.0,1031.0,1168.0,951.0,1195.0,222.0,0.1976512650172119,2013.0,1,38.74817409393759,-9.17228256605172,10324.0,0.3367880666408369,0.0372917473847346,0.0998643936458737,0.0413599380085238,0.0378729174738473,0.0494963192561022,0.0763270050368074,0.113134444013948,0.0921154591243704,0.1157497094149554,10324.0,11.0,3,Diversifiers
37942,Dorothy Turner,0,67,1.0,0.0,1.0,2.0,6977.0,2870.0,9.0,111.0,570.0,33.0,215.0,1600.0,2574.0,750.0,2187.0,1170.0,0.3397423600385925,2006.0,1,38.77331633017546,-9.187248307776642,17887.0,0.3900598199809917,0.1604517247162744,0.0894504388662156,0.0062056241963437,0.0318667188460893,0.0018449153016156,0.0120199027226477,0.1439033935260245,0.0419298932185386,0.1222675686252585,8943.5,18.0,0,Diversifiers
21157,David Knight,1,67,0.0,1.0,1.0,2.0,6738.0,3054.0,8.0,379.0,852.0,1919.0,1143.0,2048.0,2189.0,667.0,1637.0,929.0,0.3356484395497028,2011.0,1,38.78703744058673,-9.194980478140357,20626.0,0.3266750702996218,0.1480655483370503,0.099292155531853,0.018374866673131,0.041307088141181,0.0930379133132939,0.0554154950063027,0.1061281877242315,0.0323378260447978,0.0793658489285367,10313.0,13.0,0,Diversifiers
34757,Joanne Ault,0,24,1.0,1.0,1.0,2.0,3237.0,2774.0,8.0,412.0,352.0,1017.0,559.0,1741.0,2729.0,849.0,2195.0,830.0,0.0586913089411652,2023.0,1,38.71130838723045,-9.130304573694929,15865.0,0.2040340371887803,0.1748502994011976,0.10973841790104,0.0259691144027734,0.0221872045382918,0.0641033722029625,0.0352347935707532,0.1720138670028364,0.0535140245824141,0.1383548692089505,7932.5,1.0,0,Diversifiers
40825,Warren Clark,1,43,2.0,0.6,1.0,2.0,7939.0,1321.0,13.0,301.0,625.0,1578.0,1575.0,1658.0,1297.0,790.0,2662.0,1934.0,-0.0459085204251716,2004.0,0,38.7216532878378,-9.132767897463896,19746.0,0.4020561126304061,0.066899625240555,0.0839663729362908,0.015243593639218,0.031651980147878,0.0799149194773625,0.0797629899726526,0.0656841892028765,0.0400081029069178,0.1348121138458421,9873.0,20.0,0,Diversifiers
30326,Jeanette Deal,0,34,0.0,0.0,0.0,1.0,4438.0,4745.0,14.0,259.0,209.0,468.0,703.0,883.0,633.0,828.0,1147.0,632.0,0.2070711609916621,2015.0,0,38.74812737507167,-9.172488897651684,14313.0,0.3100677705582337,0.3315168029064487,0.0616921679591979,0.0180954377139663,0.0146021099699573,0.0326975476839237,0.0491161880807657,0.0442255292391532,0.057849507440788,0.0801369384475651,14313.0,9.0,0,Diversifiers
31174,Jennifer Campbell,0,83,1.0,0.0,0.0,2.0,4318.0,2075.0,9.0,161.0,7.0,844.0,1008.0,2315.0,1919.0,1474.0,1865.0,200.0,0.3099697064036854,2007.0,1,38.76126805554381,-9.143486099369966,15986.0,0.2701113474290004,0.1298010759414487,0.1448142124358813,0.0100713123983485,0.0004378831477542,0.052796196672088,0.063055173276617,0.1200425372200675,0.0922056799699737,0.1166645815088202,7993.0,17.0,0,Diversifiers
1933,William Burges,0,33,1.0,0.0,0.0,2.0,5429.0,4274.0,9.0,296.0,227.0,516.0,704.0,1438.0,641.0,1314.0,82.0,650.0,0.2292904994654661,2016.0,1,38.76339854720083,-9.094403834048444,14921.0,0.363849607935125,0.286441927484753,0.0963742376516319,0.0198378124790563,0.0152134575430601,0.0345821325648415,0.0471818242745124,0.0429595871590375,0.0880638026941894,0.0054956102137926,7460.5,8.0,2,Diversifiers
2947,Joseph Waugh,1,48,0.0,1.0,1.0,3.0,6421.0,2636.0,11.0,244.0,565.0,1138.0,1539.0,2403.0,1722.0,1375.0,2157.0,594.0,0.176795943779987,2004.0,1,38.7473093810046,-9.119741663979378,20200.0,0.3178712871287129,0.1304950495049505,0.1189603960396039,0.012079207920792,0.0279702970297029,0.0563366336633663,0.0761881188118811,0.0852475247524752,0.068069306930693,0.1067821782178217,6733.333333333333,20.0,3,Diversifiers
27107,Maria Johnston,0,29,0.0,0.0,0.0,1.0,3368.0,2547.0,18.0,209.8,127.0,540.0,612.0,1107.0,586.0,993.0,672.0,181.0,0.1227725897111535,2015.0,0,38.76406952815106,-9.094742201494194,10761.8,0.3129587987139698,0.2366704454645133,0.1028638331877567,0.0194948800386552,0.0118009998327417,0.0501774796037837,0.0568678102176215,0.0544518574959579,0.0922708097158468,0.0624430857291531,10761.8,9.0,0,Diversifiers
9609,Susanne Lukow,0,27,0.0,0.0,0.0,1.0,6400.0,4606.0,12.0,322.0,345.0,358.0,985.0,1137.0,927.0,1711.0,825.0,162.0,0.2237918595271965,2015.0,1,38.76072780141324,-9.167158394280078,17616.0,0.36330608537693,0.2614668483197093,0.0645435967302452,0.0182788374205267,0.0195844686648501,0.020322434150772,0.0559150772025431,0.0526226158038147,0.0971276112624886,0.0468324250681198,17616.0,9.0,1,Diversifiers
17570,John Mcgrath,1,31,0.0,0.0,0.0,1.0,4047.0,4053.0,13.0,81.0,238.0,471.0,505.0,1297.0,1075.0,897.0,484.0,577.0,0.0511118688218665,2012.0,1,38.736857653935296,-9.150248383585682,13148.0,0.3078034682080925,0.3082598113781564,0.0986461819288104,0.0061606327958624,0.0181016124125342,0.0358229388500152,0.0384088834803772,0.0817614846364466,0.0682233039245512,0.0368116823851536,13148.0,12.0,1,Diversifiers
14813,Erica Brown,0,41,1.0,0.0,2.0,2.0,4587.0,1782.0,9.0,536.0,926.0,1306.0,825.0,2328.0,1739.0,1120.0,1461.0,263.0,0.2794102880046942,2009.0,1,38.75161351044649,-9.177226831927891,16610.0,0.276158940397351,0.1072847682119205,0.1401565322095123,0.0322697170379289,0.0557495484647802,0.0786273329319686,0.0496688741721854,0.1046959662853702,0.0674292594822396,0.0879590608067429,8305.0,15.0,0,Diversifiers
45046,Kent Cordova,1,42,1.0,1.0,1.0,2.0,5558.0,1952.0,11.0,255.0,884.0,1055.0,816.0,1936.0,1929.0,965.0,2298.0,365.0,0.2333953272520031,2006.0,0,38.755801931990206,-9.11912681271547,17648.0,0.3149365367180417,0.1106074342701722,0.1097008159564823,0.0144492293744333,0.0500906618313689,0.0597801450589301,0.0462375339981867,0.1093041704442429,0.0546804170444243,0.1302130553037171,8824.0,18.0,0,Diversifiers
8323,Leonard Rezak,1,33,0.0,0.0,0.0,2.0,4736.0,6911.0,16.0,352.0,259.0,517.0,704.0,1243.0,417.0,1168.0,522.0,76.0,0.3035467064027766,2014.0,1,38.73616913150866,-9.150047538228156,16829.0,0.2814189791431458,0.4106601699447382,0.0738605977776457,0.0209162754768554,0.0153901004218907,0.0307207796066314,0.0418325509537108,0.0247786558916156,0.0694040049913839,0.0310178857923821,8414.5,10.0,1,Diversifiers
43863,Phyllis Adams,0,28,0.0,0.0,0.0,1.0,2446.0,5340.0,11.0,144.0,215.0,465.0,940.0,466.0,1287.0,784.0,663.0,688.0,0.2123501064291141,2016.0,0,38.759481999911095,-9.165844881339575,12750.0,0.1918431372549019,0.4188235294117647,0.0365490196078431,0.0112941176470588,0.0168627450980392,0.0364705882352941,0.0737254901960784,0.1009411764705882,0.0614901960784313,0.052,12750.0,8.0,0,Diversifiers
6155,Ollie Roberts,0,74,1.0,1.0,1.0,3.0,2350.0,2929.0,10.0,434.0,791.0,486.0,349.0,2571.0,2260.0,216.0,1853.0,1018.0,0.2511607794995132,2002.0,1,38.77496963619587,-9.125233458872057,14239.0,0.1650396797527916,0.2057026476578411,0.1805604326146499,0.0304796685160474,0.05555165390828,0.0341316103658964,0.0245101481845635,0.1587190111665145,0.0151696046070651,0.1301355432263501,4746.333333333333,22.0,1,Diversifiers
7476,Joe Carpenter,1,76,1.0,0.0,1.0,1.0,2457.0,2123.0,17.0,120.0,715.0,1225.0,1285.0,1749.0,1932.0,1364.0,2199.0,752.0,0.1803632222434319,2007.0,1,38.72340380959177,-9.1191898848801,15169.0,0.1619750807568066,0.1399564902102973,0.1153009427121102,0.0079108708550332,0.04713560551124,0.0807568066451315,0.0847122420726481,0.127365020766036,0.0899202320522117,0.144966708418485,15169.0,17.0,1,Diversifiers
19801,Sheri Hill,0,34,0.0,0.0,0.0,1.0,5056.0,4250.0,9.0,95.0,381.0,525.0,663.0,1175.0,802.0,852.0,331.0,491.0,0.4080988177946782,2014.0,1,38.73634869935375,-9.149249321119632,14130.0,0.3578202406227884,0.3007784854918613,0.0831564048124557,0.0067232837933474,0.0269639065817409,0.0371549893842887,0.0469214437367303,0.056758669497523,0.0602972399150743,0.0234253361641896,14130.0,10.0,2,Diversifiers
36790,James Alvarado,1,40,1.0,1.0,1.0,2.0,6469.0,1635.0,11.0,468.6,453.0,1554.0,1336.0,1857.0,2019.0,866.0,2248.0,1277.0,0.2142996409168559,2004.0,1,38.73017453948818,-9.173368165034969,18905.6,0.3421737474610697,0.0864823121191604,0.0982248645903859,0.0247863067027759,0.02396115436696,0.0821978672985782,0.0706668923493568,0.1067937542315504,0.0458065335138794,0.118906567366283,9452.8,20.0,0,Diversifiers
16445,Violet Rowe,0,35,0.0,1.0,0.0,1.0,5312.0,2372.0,9.0,310.0,737.0,990.0,1615.0,2470.0,2027.0,1009.0,2373.0,963.0,0.1066228586919772,2009.0,1,38.75124263514719,-9.137238486067004,19215.0,0.2764506895654436,0.1234452250845693,0.1285454072339318,0.0161332292479833,0.0383554514702055,0.0515222482435597,0.0840489201144938,0.1054905022118136,0.0525110590684361,0.1234972677595628,19215.0,15.0,0,Diversifiers
27287,Adele Vargas,0,76,1.0,1.0,1.0,1.0,4301.0,552.0,10.0,816.0,613.0,1685.0,1704.0,2100.0,2415.0,1221.0,2485.0,251.0,0.1631415732208094,2008.0,1,38.78626045524407,-9.126451538773631,17892.0,0.2403867650346523,0.0308517773306505,0.1173708920187793,0.0456069751844399,0.0342611222892913,0.0941761681198301,0.0952380952380952,0.1349765258215962,0.0682427900737759,0.1388888888888889,17892.0,16.0,0,Diversifiers
37484,Ronald Weidner,1,33,1.0,0.0,0.0,3.0,5822.0,3562.0,15.0,377.0,275.0,546.0,501.0,811.0,837.0,843.0,543.0,856.0,0.1314280756794927,2017.0,0,38.74780776321041,-9.17349739117925,14117.0,0.4124105688177374,0.2523198979953248,0.0574484663880427,0.0267053906637387,0.0194800595027272,0.0386767726854147,0.0354891265849684,0.0592902174683006,0.0597152369483601,0.038464262945385,4705.666666666667,7.0,0,Diversifiers
25767,Allen Ortiz,1,50,0.0,1.0,2.0,2.0,4807.0,2198.0,9.0,292.0,435.0,1064.0,661.0,1698.0,2430.0,1115.0,1907.0,1493.0,0.1793204615276022,2005.0,1,38.76817074887195,-9.139723407053207,16607.0,0.2894562533871259,0.1323538266995845,0.1022460408261576,0.0175829469500812,0.0261937737098813,0.0640693683386523,0.0398024929246703,0.1463238393448545,0.0671403624977419,0.11483109532125,8303.5,19.0,0,Diversifiers
25094,Reynaldo Redd,1,57,1.0,1.0,1.0,2.0,6636.0,156.0,10.0,179.0,746.0,987.0,1111.0,2224.0,1384.0,904.0,2037.0,966.0,0.148047234410138,2010.0,1,38.71676544815393,-9.154467395575717,16364.0,0.4055243216817404,0.0095331214861891,0.1359080909313126,0.0109386458078709,0.0455878758249816,0.0603153263260816,0.0678929357125397,0.0845758983133708,0.055243216817404,0.1244805670985089,8182.0,14.0,0,Diversifiers
27252,Ambrose Uhlman,1,36,1.0,0.0,0.0,2.0,6414.0,121.0,6.0,175.0,769.0,1457.0,402.0,962.0,2050.0,732.0,1660.0,1352.0,0.2196135756842722,2011.0,1,38.75037984951489,-9.177993246769743,14742.0,0.4350834350834351,0.0082078415411748,0.0652557319223985,0.0118708452041785,0.0521638854972188,0.0988332654999321,0.0272690272690272,0.1390584723918057,0.0496540496540496,0.1126034459367792,7371.0,13.0,0,Diversifiers
5034,Jeremy Walker,1,33,0.0,0.0,0.0,4.0,4182.0,5203.0,15.0,202.0,179.0,550.0,878.0,1185.0,697.0,1523.0,906.0,462.0,0.2713110468614825,2011.0,1,38.76073469089221,-9.16675457519339,15505.0,0.2697194453402128,0.3355691712350854,0.0764269590454692,0.0130280554659787,0.0115446630119316,0.0354724282489519,0.0566268945501451,0.0449532408900354,0.0982263785875524,0.0584327636246372,3876.25,13.0,2,Diversifiers
26619,Marian Jones,0,64,2.0,1.0,0.0,3.0,3829.0,3530.0,7.0,487.0,531.0,77.0,1706.0,2015.0,1809.0,1629.0,2185.0,1224.0,0.0874122537322895,2006.0,1,38.77705776244852,-9.145413602438484,17798.0,0.2151365321946286,0.1983368917855938,0.1132149679739296,0.0273626250140465,0.0298348129003258,0.0043263288009888,0.0958534666816496,0.1016406337790763,0.0915271378806607,0.1227666029890999,5932.666666666667,18.0,0,Diversifiers
40008,Richard Mcgovern,1,73,0.0,1.0,2.0,2.0,4974.0,2861.0,17.0,448.0,677.0,220.0,424.0,1652.0,1290.0,843.0,2053.0,1676.0,0.3255008301740385,2003.0,0,38.7401094677163,-9.162782983796136,15442.0,0.3221085351638388,0.1852739282476363,0.1069809610154125,0.0290117860380779,0.0438414713120062,0.0142468592151275,0.0274575832146095,0.0835384017614298,0.0545913741743297,0.1329490998575314,7721.0,21.0,0,Diversifiers
14163,Joyce Patton,0,74,1.0,1.0,0.0,3.0,5081.0,1427.0,11.0,358.0,464.0,1641.0,1025.0,1412.2,1696.0,1269.0,2031.0,707.0,0.1919871590827085,2010.0,1,38.76575048380717,-9.173500275376052,16404.2,0.309737750088392,0.0869899172163226,0.0860877092451933,0.0218236793016422,0.0282854390948659,0.1000353567988685,0.062483998000512,0.1033881566915789,0.0773582375245364,0.1238097560380878,5468.066666666667,14.0,1,Diversifiers
32719,Justin Simpson,1,60,1.0,1.0,1.0,2.0,4371.0,1153.0,17.0,266.0,745.0,1272.0,2158.0,1912.0,1440.0,1298.0,1858.0,1255.0,0.0291790831358679,2004.0,1,38.787444920015,-9.140391729741168,16473.0,0.2653432890183937,0.0699933224063619,0.1160687185090754,0.0161476355247981,0.0452255205487767,0.0772172646148242,0.1310022460996782,0.0874157712620651,0.0787956049292782,0.112790627086748,8236.5,20.0,0,Diversifiers
28361,William Ayers,1,33,1.0,0.0,0.0,1.0,5109.0,2756.0,17.0,406.0,209.0,548.0,710.0,1030.0,625.0,589.0,826.0,559.0,0.1720174199782115,2016.0,0,38.7485435301509,-9.173037603054013,12808.0,0.398891317926296,0.2151780137414116,0.080418488444722,0.0316989381636477,0.0163179262960649,0.042785758900687,0.0554341036851967,0.0487976264834478,0.0459868831980012,0.0644909431605246,12808.0,8.0,0,Diversifiers
30750,David Lococo,1,56,0.0,1.0,1.0,2.0,5512.0,1495.0,11.0,55.0,715.0,1659.0,964.0,2297.0,1578.0,1247.0,1685.0,145.0,0.211493481072813,2007.0,1,38.76952107641394,-9.192026166774756,17207.0,0.320334747486488,0.0868832451909106,0.1334921834137269,0.0031963735688963,0.0415528563956529,0.0964142500145289,0.0560237112802929,0.0917068634857906,0.0724705061893415,0.0979252629743709,8603.5,17.0,0,Diversifiers
30659,Sterling Jackson,1,37,1.0,0.0,1.0,2.0,4340.0,3046.0,10.0,408.0,478.0,118.0,501.0,2118.0,1317.0,750.0,1809.0,736.0,0.2611004905021539,2010.0,1,38.78242467985728,-9.159557895716947,14885.0,0.2915686933154182,0.2046355391333557,0.1422908968760497,0.0274101444407121,0.0321128653006382,0.0079274437353039,0.0336580450117568,0.088478333893181,0.0503862949277796,0.1215317433658045,7442.5,14.0,0,Diversifiers
28719,Ronnie Langston,1,32,1.0,1.0,1.0,2.0,5980.0,355.0,12.0,316.0,691.0,1438.0,1911.0,2323.0,2277.0,1205.0,2080.0,1685.0,0.2437007998315429,2015.0,1,38.72067499743259,-9.131434010275376,18576.0,0.3219207579672696,0.0191106804478897,0.1250538329026701,0.0170111972437553,0.0371985357450473,0.077411714039621,0.1028746770025839,0.1225775193798449,0.0648686477174849,0.1119724375538329,9288.0,9.0,0,Diversifiers
12307,Patrick Roswick,1,26,1.0,1.0,0.0,2.0,5324.0,2054.0,9.6,159.0,433.0,580.0,973.0,2536.0,1476.0,919.0,2189.0,1694.0,0.0886377206332634,2021.0,1,38.78403109696698,-9.18348347258462,16643.0,0.3198942498347654,0.1234152496545094,0.1523763744517214,0.0095535660638106,0.026016944060566,0.0348494862705041,0.0584630174848284,0.0886859340263173,0.0552184101424022,0.131526768010575,8321.5,3.0,3,Diversifiers
49137,Rose Moore,0,33,1.0,0.0,0.0,1.0,5490.0,2162.0,17.0,220.0,278.0,531.0,707.0,1218.0,859.0,1167.0,692.0,165.0,0.1865253562472995,2015.0,0,38.76013743406861,-9.167527608026766,13324.0,0.4120384268988292,0.1622635845091564,0.091413989792855,0.0165115580906634,0.0208646052236565,0.0398528970279195,0.0530621435004503,0.0644701290903632,0.0875863104172921,0.0519363554488141,13324.0,9.0,0,Diversifiers
4835,Anna Landau,0,66,1.0,0.0,1.0,2.0,5735.0,2227.0,12.0,404.0,267.0,770.0,567.0,2477.0,2499.0,492.0,2003.0,718.0,0.1930807083995232,2010.0,1,38.74722894673431,-9.16647124493524,17441.0,0.3288228885958374,0.1276876325898744,0.1420216730692047,0.0231638094145977,0.0153087552319247,0.0441488446763373,0.0325096038071211,0.1432830686313858,0.028209391663322,0.1148443323203944,8720.5,14.0,3,Diversifiers
26648,Darlene Bica,0,70,1.0,0.0,1.0,2.0,4417.0,2831.0,12.0,404.0,648.0,1148.0,1403.0,2349.0,846.0,864.0,1714.0,813.0,0.2861586695292538,2005.0,1,38.769092649046335,-9.164238048042774,16624.0,0.2657001924927815,0.170295957651588,0.1413017324350337,0.0243022136669874,0.0389797882579403,0.0690567853705486,0.0843960538979788,0.0508902791145332,0.0519730510105871,0.1031039461020211,8312.0,19.0,0,Diversifiers
40099,Laurie Elerson,0,31,1.0,1.0,1.0,3.0,6899.0,410.0,11.0,344.0,417.0,1093.0,1182.0,1707.0,2065.0,1248.0,2074.0,572.0,0.0031160967684473,2016.0,0,38.75702515575624,-9.144447683951435,17439.0,0.3956075463042605,0.023510522392339,0.0978840529846895,0.0197259017145478,0.023911921555135,0.0626756121337232,0.0677791157749871,0.1184127530248294,0.0715637364527782,0.11892883766271,5813.0,8.0,0,Diversifiers
42390,Travis Mccaslin,1,33,0.0,0.0,0.0,2.0,4489.0,4051.0,17.0,225.0,291.0,332.0,999.0,790.0,709.0,808.0,398.0,219.0,0.2898446502133057,2011.0,0,38.760058024766806,-9.166270995011024,13092.0,0.3428811487931561,0.309425603421937,0.06034219370608,0.017186067827681,0.0222273143904674,0.0253589978612893,0.0763061411549037,0.0541552092881148,0.0617170791322945,0.0304002444240757,6546.0,13.0,0,Diversifiers
15736,Thomas Smith,1,33,0.0,0.0,0.0,1.0,4589.0,2732.0,17.0,418.0,279.0,229.0,519.0,887.0,551.0,1015.0,1085.0,849.0,0.2382834550490135,2011.0,1,38.735676647415005,-9.148944005724331,12304.0,0.3729681404421326,0.2220416124837451,0.0720903771131339,0.0339726918075422,0.0226755526657997,0.018611833550065,0.0421814044213263,0.0447821846553966,0.0824934980494148,0.0881827048114434,12304.0,13.0,1,Diversifiers
13290,Roger Rodriguez,1,56,2.0,0.0,1.0,3.0,6841.0,1333.0,9.0,114.0,927.0,777.0,1232.0,2153.0,2404.0,1188.0,1928.0,1187.0,0.2090952052027883,2002.0,1,38.72736792941088,-9.178256166804974,18897.0,0.362015134677462,0.0705402974017039,0.1139334285865481,0.0060327036037466,0.0490554056199396,0.041117637720273,0.0651955336825951,0.1272159602053236,0.0628671217653595,0.1020267767370482,6299.0,22.0,1,Diversifiers
30897,Lucile Claus,0,27,0.0,0.0,1.0,2.0,3508.0,4248.0,8.0,310.0,462.0,470.0,640.0,1245.0,898.0,783.0,1362.0,37.0,0.1465817072571757,2018.0,0,38.760303176521454,-9.167259507159525,13926.0,0.2519029154100244,0.3050409306333477,0.0894011202068074,0.0222605198908516,0.0331753554502369,0.0337498204796783,0.0459572023553066,0.0644836995547896,0.0562257647565704,0.0978026712623869,6963.0,6.0,0,Diversifiers
11990,Emmanuel Miller,1,25,1.0,0.0,1.0,3.0,2658.0,71.0,10.0,296.0,248.0,644.0,2138.0,2531.0,2196.0,684.0,2626.0,1358.0,0.2689382205512212,2022.0,1,38.7476546609197,-9.150187371563442,14092.0,0.1886176554073233,0.0050383196139653,0.1796054499006528,0.0210048254328697,0.0175986375248367,0.0456996877661084,0.1517172864036332,0.1558330967925064,0.0485381776894692,0.1863468634686347,4697.333333333333,2.0,3,Diversifiers
4501,Melissa Miller,0,48,1.0,0.0,0.0,2.0,6299.0,3360.0,13.0,506.0,401.0,209.0,1419.0,2370.0,2151.0,1088.0,2220.0,200.0,0.1760313253995519,2008.0,1,38.72687127054114,-9.148456875561418,20023.0,0.3145882235429256,0.1678070219247865,0.1183638815362333,0.025270938420816,0.0200269689856664,0.0104379963042501,0.0708685012235928,0.1074264595714927,0.0543375118613594,0.1108724966288767,10011.5,16.0,1,Diversifiers
2031,William Block,1,47,1.0,0.0,2.0,3.0,5668.0,1877.0,10.0,341.0,541.0,1733.0,345.0,1715.0,1575.0,1017.0,2545.0,457.0,0.0316628497279618,2011.0,1,38.71919387149183,-9.159833371784028,17357.0,0.3265541280175145,0.1081408077432736,0.0988073975917497,0.0196462522325286,0.0311689808146569,0.0998444431641412,0.0198767068041712,0.0907414875842599,0.0585930748401221,0.1466267212075819,5785.666666666667,13.0,3,Diversifiers
26243,Kimberly Atkison,0,30,0.0,0.0,0.0,2.0,1830.0,3831.0,16.0,193.2,286.0,510.0,540.0,674.0,450.0,565.0,1250.0,614.0,0.1684251255175561,2014.0,0,38.74890097651112,-9.173495253366484,10129.2,0.1806657978912451,0.3782134818149508,0.0665402993326225,0.0190735694822888,0.0282352012004896,0.0503494846582158,0.0533112190498756,0.0444260158748963,0.0557793310429254,0.1234055996524898,5064.6,10.0,0,Diversifiers
35609,Linnea Nelson,0,28,0.0,0.0,0.0,1.0,4317.0,3476.0,9.0,248.0,332.0,441.0,815.0,1360.0,1161.0,406.0,1699.0,680.0,0.3057033387419058,2019.0,0,38.74909949866809,-9.17323794636446,14255.0,0.3028411083830235,0.2438442651701157,0.0954051210101718,0.0173974044195019,0.0232900736583654,0.0309365135040336,0.0571729217818309,0.081445106980007,0.0284812346545071,0.1191862504384426,14255.0,5.0,0,Diversifiers
26646,Heather Emerson,0,64,1.0,1.0,0.0,2.0,5742.0,2127.0,8.0,243.0,502.0,1371.0,1088.0,1942.0,1589.0,1295.0,2121.0,120.0,0.1765402059140052,2011.0,1,38.75355252970131,-9.173948982350163,18020.0,0.318645948945616,0.1180355160932297,0.1077691453940066,0.0134850166481687,0.027857935627081,0.0760821309655937,0.060377358490566,0.0881798002219755,0.0718645948945616,0.1177025527192008,9010.0,13.0,0,Diversifiers
32171,Gladys Lyons,0,34,0.0,0.0,0.0,1.0,4092.0,4693.0,11.0,326.0,335.0,407.0,923.0,571.0,1059.0,607.0,131.0,718.0,0.0896388821661534,2016.0,0,38.764745327561485,-9.095963704418018,13144.0,0.3113207547169811,0.3570450395617772,0.0434418746195982,0.0248021911138161,0.0254869141813755,0.0309646987218502,0.0702221545952525,0.0805690809494826,0.0461807668898356,0.0099665246500304,13144.0,8.0,0,Diversifiers
5943,Agustina Jones,0,71,1.0,1.0,0.0,1.0,5065.0,1619.0,7.0,434.0,782.0,1509.0,1620.0,1447.0,2745.0,958.0,1511.0,814.0,0.2481560395619662,2007.0,1,38.775177852689644,-9.149755008105265,17690.0,0.28631995477671,0.0915206331260599,0.0817976257772753,0.0245336348219332,0.0442057659694742,0.0853024307518372,0.0915771622385528,0.1551724137931034,0.0541548897682306,0.085415488976823,17690.0,17.0,2,Diversifiers
22460,Jane Hebert,0,34,0.0,0.0,0.0,1.0,2986.0,2916.0,15.0,170.0,221.0,415.0,705.0,547.8,1148.0,1087.0,20.0,379.0,0.2572404942508409,2011.0,1,38.763029131858985,-9.095936559652737,10215.8,0.2922923314865209,0.2854402004737759,0.0536228195540241,0.0166408896023806,0.0216331564830948,0.040623348146988,0.0690107480569314,0.1123749486090174,0.1064038058693396,0.0019577517179271,10215.8,13.0,2,Diversifiers
13474,Henry Todd,1,55,1.0,1.0,1.0,3.0,3759.0,3027.0,13.0,512.0,600.0,1172.0,768.0,2167.0,1785.0,965.0,2257.0,1521.0,0.1853263445658304,2009.0,1,38.75478724065559,-9.192280247859635,17012.0,0.2209616741123912,0.1779332236068657,0.1273806724664942,0.0300964025393839,0.0352692217258405,0.0688925464378086,0.0451446038090759,0.1049259346343757,0.0567246649423936,0.1326710557253703,5670.666666666667,15.0,2,Diversifiers
8167,Angela Chisolm,0,46,1.0,1.0,1.0,2.0,5232.0,3154.0,7.0,279.0,778.0,1747.0,1045.0,1312.0,2431.0,1006.0,2912.0,648.0,0.2300645520777608,2006.0,1,38.73913650339147,-9.155205459668291,19896.0,0.2629674306393245,0.1585243264977885,0.0659429030960997,0.0140229191797346,0.039103337354242,0.0878065942903096,0.0525231202251708,0.1221853638922396,0.050562927221552,0.1463610776035384,9948.0,18.0,3,Diversifiers
28085,Eddie Vanmeter,1,69,1.0,0.0,2.0,2.0,4058.0,3244.0,8.0,45.0,457.0,1391.0,740.0,2714.0,2392.0,972.0,2284.0,1186.0,0.2581798389634007,2007.0,1,38.71014422584397,-9.12827644513833,18297.0,0.2217849920752035,0.1772968246160572,0.1483303273760725,0.0024594195769798,0.0249767721484396,0.0760233918128654,0.0404437885992239,0.1307318139585724,0.0531234628627643,0.1248292069738208,9148.5,17.0,0,Diversifiers
34416,Regina Frey,0,30,0.0,0.2,0.0,1.0,5329.0,4147.0,10.0,204.0,251.0,522.0,619.0,758.0,175.0,1090.0,1115.0,458.0,-0.0118076678957673,2014.0,0,38.74917868839686,-9.172656105446292,14210.0,0.3750175932441942,0.2918367346938775,0.0533427163969035,0.0143560872624912,0.0176636171710063,0.036734693877551,0.043560872624912,0.0123152709359605,0.0767065446868402,0.0784658691062632,14210.0,10.0,0,Diversifiers
36342,Donald Cockrell,1,28,0.0,0.0,0.0,1.0,4720.0,4949.0,17.0,295.0,226.0,463.0,584.0,568.0,674.0,673.0,743.0,801.0,0.0611446199205207,2016.0,0,38.73701736987369,-9.149454500599653,13895.0,0.3396905361640878,0.3561712846347607,0.0408780136739834,0.0212306585102554,0.0162648434688736,0.0333213386110111,0.0420295070169125,0.0485066570708888,0.0484346887369557,0.0534724721122706,13895.0,8.0,0,Diversifiers
40445,Brandi Duncan,0,56,1.0,1.0,2.0,2.0,4989.0,2333.0,13.6,247.0,274.0,662.0,607.0,2333.0,1876.0,957.0,1762.0,1150.0,0.2760954432268858,2010.0,0,38.73626818162965,-9.164940798085974,16040.0,0.3110349127182045,0.1454488778054863,0.1454488778054863,0.0153990024937655,0.0170822942643391,0.0412718204488778,0.0378428927680798,0.1169576059850374,0.0596633416458852,0.1098503740648379,8020.0,14.0,0,Diversifiers
19986,Michael Fuller,1,82,1.0,1.0,1.0,2.0,2860.0,1520.0,7.0,216.0,661.0,942.0,471.0,1441.0,2041.0,771.0,2079.0,598.0,0.1452921251128894,2005.0,1,38.7187524387492,-9.169816281289112,13002.0,0.2199661590524534,0.1169050915243808,0.11082910321489,0.0166128287955699,0.0508383325642208,0.0724503922473465,0.0362251961236732,0.1569758498692509,0.0592985694508537,0.1598984771573604,6501.0,19.0,0,Diversifiers
27730,Ora Jankowiak,0,28,0.0,0.0,0.0,2.0,2918.0,4168.0,10.0,246.0,339.0,511.0,772.0,1054.0,665.0,1169.0,586.0,854.0,0.0932719801242198,2016.0,0,38.74761709691845,-9.173316781366252,12428.0,0.2347924042484712,0.3353717412294818,0.0848084969423881,0.0197940135178628,0.02727711618925,0.0411168329578371,0.0621177985194721,0.0535082072738976,0.0940617959446411,0.0471515931766977,6214.0,8.0,0,Diversifiers
15600,Larry Vizcarrondo,1,29,1.0,1.0,0.0,3.0,5719.0,1059.0,8.0,266.0,821.0,867.0,601.0,2747.0,2078.0,825.0,2048.0,814.0,0.1264791028401549,2018.0,1,38.725392752105606,-9.164229293830756,17031.0,0.3357994245787094,0.0621807292584111,0.1612941107392402,0.0156185778873818,0.04820621220128,0.050907169279549,0.0352885913921672,0.1220128001878926,0.0484410780341729,0.1202513064411954,5677.0,6.0,0,Diversifiers
1099,Robert Vogel,1,74,2.0,0.0,1.0,1.0,4927.0,98.0,11.0,232.0,523.0,1140.0,1418.0,1970.0,1814.0,1042.0,1929.0,1221.0,0.0845546630179485,2009.0,1,38.78719821627174,-9.16466171186824,15093.0,0.326442721791559,0.0064930762605181,0.1305240840124561,0.0153713642085735,0.0346518253494997,0.0755317034386801,0.0939508381368846,0.1201881666997946,0.069038627178162,0.127807592923872,15093.0,15.0,1,Diversifiers
3480,David Artis,1,50,1.0,1.0,2.0,2.0,3129.0,3260.0,10.0,397.0,447.0,1474.0,1285.0,1541.2,2506.0,1063.0,2092.0,815.0,0.1784186959768328,2006.0,1,38.711076331336166,-9.117600623324034,17194.2,0.1819799699898803,0.1895988182061392,0.0896348768770864,0.0230891812355329,0.0259971385699829,0.0857265822195856,0.0747345034953647,0.1457468216026334,0.0618231729304067,0.1216689348733875,8597.1,18.0,3,Diversifiers
36488,Richard Numbers,1,66,1.0,0.0,1.0,2.0,8598.0,3238.0,10.0,306.0,340.0,799.0,725.0,1897.0,2080.0,758.0,1581.0,320.0,0.1597708985499111,2008.0,1,38.71813648215527,-9.123403211756278,20322.0,0.4230882787127251,0.1593347111504773,0.0933471115047731,0.0150575730735163,0.0167306367483515,0.0393169963586261,0.0356756224781025,0.1023521306957976,0.0372994783977954,0.0777974608798346,10161.0,16.0,0,Diversifiers
15705,John Wilkes,1,26,1.0,1.0,1.0,2.0,4257.0,351.0,17.0,250.0,878.0,1075.0,1492.0,2058.0,1329.0,865.0,2220.0,773.0,0.1765941933879085,2021.0,1,38.71476470516174,-9.12979430433366,14775.0,0.2881218274111675,0.0237563451776649,0.1392893401015228,0.0169204737732656,0.0594247038917089,0.0727580372250423,0.1009813874788494,0.0899492385786802,0.0585448392554991,0.150253807106599,7387.5,3.0,0,Diversifiers
2634,James Herbert,1,82,1.0,2.0,1.0,2.0,5578.0,790.0,9.0,506.0,433.0,745.0,1127.0,2619.0,2320.0,502.0,1640.0,1557.0,0.1770576460108424,2011.0,1,38.7117601648898,-9.192523687504377,16260.0,0.343050430504305,0.0485854858548585,0.161070110701107,0.0311193111931119,0.0266297662976629,0.0458179581795817,0.0693111931119311,0.1426814268142681,0.0308733087330873,0.1008610086100861,8130.0,13.0,1,Diversifiers
9196,Thomas Norton,1,34,0.0,0.0,0.0,1.0,3235.0,4507.0,7.0,440.0,381.0,565.0,742.0,1331.0,1025.0,1755.0,390.0,1547.0,0.3146432147932844,2014.0,1,38.74808407153814,-9.173159289855262,14371.0,0.225106116484587,0.3136177023171665,0.092617076055946,0.0306172152251061,0.0265117250017396,0.0393152877322385,0.051631758402338,0.0713241945584858,0.1221209380001391,0.0271379862222531,14371.0,10.0,3,Diversifiers
45103,Tyrone Mcgowan,1,58,1.0,0.0,0.0,3.0,6031.0,2383.0,10.0,173.0,433.0,1210.0,999.0,2090.0,2513.0,1242.0,1745.0,1360.0,0.2080833117140857,2009.0,0,38.75748502540773,-9.132419943701432,18819.0,0.320473989053616,0.1266273447048196,0.1110579733248312,0.0091928370264094,0.0230086614591636,0.0642967213985865,0.0530846484935437,0.1335352569211966,0.0659971305595408,0.0927254370582921,6273.0,15.0,0,Diversifiers
12834,Corinne Davidson,0,57,1.0,1.0,1.0,2.0,3707.0,1620.0,8.0,325.0,385.0,749.0,1070.0,1210.4,1964.0,1096.0,1140.0,1420.0,0.0593810324619061,2004.0,1,38.77509175290298,-9.135242714093106,13266.4,0.2794277271904963,0.122113007296629,0.091238014834469,0.0244979798588916,0.0290206838328408,0.0564584212747995,0.0806548875354278,0.1480431767472713,0.0826147259241391,0.0859313755050352,6633.2,20.0,3,Diversifiers
23873,Ruby Wild,0,70,1.0,1.0,1.0,3.0,4796.0,1659.0,6.0,471.0,808.0,686.0,996.0,2557.0,2092.0,1010.0,1471.0,99.0,0.3214574821601004,2007.0,1,38.74572524637023,-9.18121732615698,16546.0,0.2898585760908981,0.1002659252991659,0.154538861356219,0.0284660945243563,0.0488335549377493,0.0414601716426931,0.0601958177202949,0.1264353922398162,0.0610419436721866,0.0889036625166203,5515.333333333333,17.0,0,Diversifiers
47321,Joseph Fuller,1,79,1.0,0.0,1.0,1.0,6347.0,3.0,11.0,322.0,759.0,683.0,987.0,2306.0,911.0,630.0,1774.0,471.0,0.2072578629277239,2004.0,0,38.70778222944629,-9.126179838414838,14722.0,0.4311234886564326,0.0002037766607797,0.1566363265860616,0.0218720282570302,0.0515554951772856,0.0463931531041978,0.0670425213965493,0.0618801793234614,0.0427930987637549,0.1204999320744464,14722.0,20.0,0,Diversifiers
2167,Wendy Lincoln,0,27,1.0,1.0,1.0,2.0,6045.0,4434.0,8.0,121.0,590.0,1066.0,541.0,1857.0,2643.0,880.0,1838.0,585.0,0.2153498076445866,2020.0,1,38.74215782420297,-9.164509957152728,20015.0,0.3020234823882088,0.2215338496127904,0.0927804146889832,0.0060454659005745,0.029477891581314,0.0532600549587809,0.0270297277042218,0.132050961778666,0.0439670247314514,0.0918311266550087,10007.5,4.0,2,Diversifiers
24849,Clara Winterholler,0,65,1.0,1.0,0.0,2.0,5954.0,2895.0,9.0,557.0,367.0,1819.0,1237.0,1876.0,2288.0,1199.0,2145.0,1210.0,0.2756781230746014,2008.0,1,38.71894451440557,-9.141493681944985,20337.0,0.2927668781039484,0.1423513792594778,0.0922456606185769,0.0273885037124452,0.0180459261444657,0.0894428873481831,0.0608250971136352,0.1125043025028273,0.0589565816000393,0.1054727835964006,10168.5,16.0,0,Diversifiers
20283,Rachel Parker,0,84,2.0,0.0,1.0,2.0,5223.0,2404.0,10.0,379.0,824.0,762.0,1381.0,1572.0,2029.0,1414.0,2002.0,893.0,0.1490127882759307,2012.0,1,38.74625846572308,-9.193098532037569,17990.0,0.2903279599777654,0.1336297943301834,0.0873818788215675,0.0210672595886603,0.0458032240133407,0.0423568649249583,0.0767648693718732,0.1127848804891606,0.0785992217898832,0.111284046692607,8995.0,12.0,0,Diversifiers
19647,John Anaya,1,32,0.0,0.0,0.0,1.0,4429.0,8225.0,17.0,418.0,383.0,553.0,488.0,466.4,288.0,1105.0,833.0,239.0,0.1500350303355384,2017.0,1,38.76051481424587,-9.165873682207454,17188.4,0.2576737799911568,0.4785203974773684,0.0271345791347653,0.0243187265830443,0.0222824695725023,0.0321728607665634,0.0283912406041283,0.0167554862581741,0.0642875427613972,0.0484629168508994,17188.4,7.0,2,Diversifiers
24170,Karen Fields,0,76,2.0,2.0,2.0,2.0,4544.0,1023.0,17.0,200.0,685.0,1731.0,930.0,1652.0,1801.0,1156.0,2453.0,456.0,0.1755357504797814,2008.0,1,38.7376570956624,-9.187182862703992,16175.0,0.2809273570324574,0.0632457496136012,0.1021329211746522,0.0123647604327666,0.0423493044822256,0.107017001545595,0.0574961360123647,0.1113446676970633,0.071468315301391,0.1516537867078825,8087.5,16.0,0,Diversifiers
977,Lisa Albrecht,0,34,1.0,1.0,1.0,1.0,7478.0,2176.0,11.0,207.0,843.0,522.0,1412.0,2522.0,2224.0,939.0,2307.0,904.0,0.025394020908766,2008.0,1,38.76436849826492,-9.184603151743982,20630.0,0.3624818225884634,0.1054774600096946,0.1222491517207949,0.0100339311682016,0.0408628211342704,0.0253029568589432,0.0684440135724672,0.107804168686379,0.0455162384876393,0.1118274357731459,20630.0,16.0,1,Diversifiers
43570,John Warden,1,33,1.0,0.0,0.0,2.0,6697.0,2406.0,17.0,295.0,483.0,478.0,495.0,767.0,297.0,725.0,592.0,379.0,0.2182300750743635,2011.0,0,38.736992671866375,-9.15045124006554,13235.0,0.5060068001511144,0.1817907064601435,0.0579523989421987,0.0222893842085379,0.0364941443143181,0.036116358141292,0.0374008311295806,0.0224404986777483,0.0547789950887797,0.0447298828862863,6617.5,13.0,0,Diversifiers
26926,Theresa Hood,0,33,0.0,0.2,0.0,1.0,4799.0,8584.0,23.0,200.0,304.0,415.0,1004.0,577.0,778.0,1441.0,766.0,1316.0,0.1658459024203112,2017.0,0,38.7371660549022,-9.150551320580613,18868.0,0.2543459826160695,0.4549501801992792,0.0305808776764892,0.0105999576001696,0.0161119355522577,0.0219949120203519,0.0532117871528513,0.0412338350646597,0.0763726945092219,0.0405978376086495,18868.0,7.0,0,Diversifiers
28409,David Evans,1,42,1.0,1.0,1.0,2.0,7070.0,4954.0,7.0,399.0,523.0,825.0,1827.0,2240.0,1787.0,873.0,1687.0,1092.0,0.4423776280320939,2005.0,1,38.73889581100573,-9.17080977136288,22185.0,0.3186837953572233,0.2233040342573811,0.1009691232814965,0.0179851250845165,0.0235744872661708,0.0371872887085868,0.0823529411764705,0.0805499211178724,0.0393509127789046,0.076042370971377,11092.5,19.0,0,Diversifiers
30016,Jason Bautista,1,53,1.0,1.0,1.0,2.0,2190.0,817.0,10.0,335.0,533.0,971.0,1204.0,997.0,1163.0,1738.0,2668.0,871.0,0.2944726940021887,2009.0,1,38.71768204895033,-9.17546751409738,12616.0,0.1735890932149651,0.0647590361445783,0.0790266328471781,0.0265535827520608,0.0422479391249207,0.0769657577679137,0.095434369055168,0.0921845275840202,0.1377615726062143,0.2114774889029803,6308.0,15.0,0,Diversifiers
6390,James Denson,1,79,1.0,1.0,1.0,2.0,3903.0,2712.0,11.0,340.0,465.0,1725.0,976.0,1923.4,1827.0,1125.0,2045.0,667.0,0.2601748192210316,2005.0,1,38.78373777224249,-9.173999725682537,17041.4,0.2290304787165373,0.1591418545424671,0.1128663138005093,0.0199514124426396,0.0272864905465513,0.1012240778339807,0.0572722898353421,0.1072095015667726,0.0660157029352048,0.1200018777799945,8520.7,19.0,2,Diversifiers
9854,Rebecca Edwards,0,83,1.0,2.0,0.0,2.0,4815.0,1561.0,6.0,168.0,895.0,1066.0,820.0,2310.0,1947.0,422.0,2697.0,427.0,0.4487783441032443,2006.0,1,38.77153623840492,-9.12079216021604,16701.0,0.2883060894557212,0.0934674570385006,0.1383150709538351,0.0100592778875516,0.0535896054128495,0.0638285132626788,0.0490988563559068,0.1165798455182324,0.0252679480270642,0.1614873360876594,8350.5,18.0,1,Diversifiers
26147,Ashley Ashley,0,64,1.0,1.0,1.0,2.0,4182.0,2322.0,9.0,210.0,514.0,1246.0,165.0,2131.0,1977.0,970.0,2054.0,114.0,0.0751604311839327,2011.0,1,38.74377751930562,-9.193908346501455,15771.0,0.2651702491915541,0.1472322617462431,0.1351214254010525,0.0133155792276964,0.0325914653477902,0.079005770084332,0.0104622408217614,0.1253566673007418,0.061505294527931,0.1302390463508972,7885.5,13.0,0,Diversifiers
24418,Carol Dinardo,0,53,1.0,1.0,0.0,2.0,4107.0,2291.0,8.0,304.0,761.0,297.0,1257.0,2170.0,2094.0,489.0,2211.0,1693.0,0.0630659347771215,2005.0,1,38.75336089358509,-9.14317663566386,15981.0,0.2569926788060822,0.1433577373130592,0.1357862461673237,0.0190225893248232,0.0476190476190476,0.0185845691758963,0.0786559038858644,0.1310305988361179,0.0305988361178899,0.1383517927538952,7990.5,19.0,0,Diversifiers
25206,Freddie Manning,1,58,1.0,0.0,1.0,1.0,2797.0,1835.0,9.0,325.0,796.0,1716.0,1146.0,2127.0,2117.0,1179.0,2621.0,799.0,0.2403664684199626,2008.0,1,38.77839021864498,-9.140748150143065,16659.0,0.1678972327270544,0.1101506693078816,0.1276787322168197,0.0195089741280989,0.0477819797106669,0.1030073833963623,0.0687916441563119,0.1270784560898013,0.0707725553754727,0.1573323728915301,16659.0,16.0,0,Diversifiers
45782,Joseph Hedge,1,70,0.0,1.0,1.0,1.0,3434.0,3433.0,17.0,333.0,491.0,1000.0,1145.0,1762.0,2225.0,1155.0,2024.0,1139.0,0.2126196502004302,2010.0,0,38.75471318132729,-9.16776167836753,17002.0,0.2019762380896365,0.2019174214798259,0.1036348664862957,0.0195859310669333,0.0288789554170097,0.0588166098106105,0.067345018233149,0.1308669568286084,0.0679331843312551,0.1190448182566756,17002.0,14.0,0,Diversifiers
46657,Robert Yu,1,28,0.0,0.0,0.0,1.0,6424.0,7076.0,17.0,191.6,375.0,486.0,806.0,1366.0,1135.0,1478.0,276.0,77.0,0.1340267406485842,2018.0,0,38.74830981752671,-9.173846863699737,19613.6,0.327527837826814,0.3607700779051271,0.0696455520659134,0.009768731900314,0.0191193865481094,0.0247787249663498,0.0410939348207366,0.057868009952278,0.0753558755149488,0.0140718684994085,19613.6,6.0,0,Diversifiers
12803,Paul Johannes,1,29,0.0,0.0,0.0,1.0,4275.0,2204.0,17.0,320.0,411.0,462.0,708.0,1197.0,492.0,1333.0,1008.0,613.0,0.0163140974533644,2014.0,1,38.74777462172192,-9.172585553709512,12410.0,0.3444802578565673,0.1775987107171635,0.0964544721998388,0.0257856567284448,0.0331184528605962,0.0372280419016921,0.0570507655116841,0.0396454472199838,0.1074133763094278,0.0812248186946011,12410.0,10.0,2,Diversifiers
25699,Charlene Pulaski,0,32,0.0,0.0,0.0,2.0,5080.0,3035.0,15.0,254.0,128.0,384.0,637.0,1132.0,913.0,1186.0,1135.0,346.0,0.1265777393646999,2016.0,1,38.74747983539715,-9.172868958788376,13884.0,0.3658887928550849,0.218596946125036,0.0815326995102276,0.0182944396427542,0.0092192451743013,0.027657735522904,0.045880149812734,0.0657591472198213,0.0854220685681359,0.0817487755690002,6942.0,8.0,1,Diversifiers
12451,Dominic Rimson,1,32,0.0,0.0,0.0,1.0,2935.0,6976.0,18.0,351.0,354.0,454.0,471.0,612.0,875.0,989.0,350.0,671.0,0.3394363865648548,2012.0,1,38.73554530115605,-9.14968581499874,14367.0,0.2042876035358808,0.485557179647804,0.0425976195447901,0.0244309876801002,0.0246397995406139,0.0316001948910698,0.0327834621006473,0.0609034593164891,0.0688383100160089,0.0243613837265956,14367.0,12.0,1,Diversifiers
40527,Clementine Swanger,0,31,0.0,0.0,0.0,1.0,4726.0,4082.0,20.0,410.0,298.0,544.0,492.0,1089.0,504.0,1191.0,747.0,148.0,0.1358208548858251,2011.0,0,38.75943650358247,-9.165915197440604,14083.0,0.3355819072640773,0.2898530142725272,0.0773272740183199,0.029113115103316,0.0211602641482638,0.0386281332102535,0.0349357381239792,0.0357878292977348,0.0845700489952425,0.0530426755662855,14083.0,13.0,0,Diversifiers
3055,Janice Howard,0,48,1.0,1.0,1.0,1.0,2688.0,5044.0,8.0,379.0,496.0,989.0,1853.0,2586.0,2592.0,955.0,1849.0,1506.0,0.1795666230906608,2010.0,1,38.74800241226354,-9.161167454181175,19431.0,0.138335649220318,0.2595851989089599,0.133086305388297,0.0195049148268231,0.0255262209870824,0.0508980495085173,0.0953630796150481,0.1333950903195924,0.0491482682311769,0.0951572229941845,19431.0,14.0,3,Diversifiers
4455,Priscilla Flaherty,0,26,2.0,1.0,0.0,2.0,4547.0,1941.0,10.0,229.0,769.0,1496.0,868.0,2547.0,1978.0,1261.0,1253.0,202.0,0.1574451103279845,2021.0,1,38.71818775971699,-9.159391279340278,16889.0,0.2692284919178163,0.1149268754810823,0.1508082183669844,0.0135591213215702,0.0455325951802948,0.0885783646160222,0.051394398721061,0.1171176505417727,0.0746639824737995,0.0741903013795961,8444.5,3.0,2,Diversifiers
31563,Joy Ripley,0,73,1.0,0.0,1.0,2.0,7258.0,2401.0,8.0,202.0,718.0,510.0,823.0,1275.0,1960.0,1217.0,2364.0,1311.0,0.1579261179369013,2002.0,1,38.73821805833421,-9.13137142585729,18728.0,0.3875480563861597,0.1282037590773173,0.0680798803929944,0.0107859888936351,0.0383383169585647,0.0272319521571977,0.0439448953438701,0.1046561298590346,0.0649829132849209,0.126228107646305,9364.0,22.0,0,Diversifiers
1031,Pamela Defosses,0,76,1.0,0.0,0.0,2.0,769.0,4064.0,10.0,473.0,827.0,1064.0,990.0,2191.0,2195.0,1461.0,1956.0,711.0,0.2535827262671342,2006.0,1,38.75201154514137,-9.139525225799318,15990.0,0.0480925578486554,0.2541588492808005,0.1370231394621638,0.0295809881175734,0.0517198248905566,0.066541588492808,0.0619136960600375,0.1372732958098811,0.0913696060037523,0.1223264540337711,7995.0,18.0,3,Diversifiers
7049,Wendell Okumura,1,28,1.0,1.0,0.0,2.0,6061.0,3017.0,9.0,338.0,361.0,511.0,1231.0,2058.0,2361.0,675.0,1970.0,329.0,0.1530519427009469,2019.0,1,38.74343254765036,-9.14151393247754,18583.0,0.3261583167411074,0.1623526879405908,0.1107463811010062,0.0181886670612925,0.0194263574234515,0.0274982510897056,0.0662433406877253,0.1270516063068396,0.0363235214981434,0.1060108701501372,9291.5,5.0,2,Diversifiers
42719,Leona White,0,27,0.0,0.0,0.0,1.0,5722.0,5152.0,6.0,339.0,357.0,494.0,884.0,883.0,671.0,1134.0,63.0,276.0,0.4596390692300407,2016.0,0,38.73632117685658,-9.149963626912678,15699.0,0.3644818141282884,0.3281737690298745,0.0562456207401745,0.0215937320848461,0.0227403019300592,0.0314669724186253,0.0563093190649085,0.0427415758965539,0.0722339002484234,0.0040129944582457,15699.0,8.0,0,Diversifiers
8119,Karen Salazar,0,75,1.0,1.0,1.0,3.0,1952.0,807.0,17.0,447.0,431.0,714.0,1264.0,2494.0,2134.0,1395.0,2566.0,483.0,0.2506183230541253,2006.0,1,38.76608093629212,-9.193751521252167,14204.0,0.137426077161363,0.0568149816952971,0.1755843424387496,0.0314700084483244,0.0303435651929034,0.0502675302731624,0.0889890171782596,0.1502393691917769,0.0982117713320191,0.1806533370881441,4734.666666666667,18.0,1,Diversifiers
26567,Marcus Carrillo,1,47,1.0,0.0,1.0,2.0,4375.0,1895.0,10.0,260.0,211.0,989.0,829.0,1926.0,1861.0,1179.0,2264.0,798.0,0.4667767783292493,2004.0,1,38.74995738655138,-9.14895284167639,15789.0,0.2770916460827158,0.1200202672746849,0.1219836595097852,0.0164671606814871,0.0133637342453606,0.0626385458230413,0.0525049084805877,0.1178668693394135,0.074672240167205,0.1433909683957185,7894.5,20.0,0,Diversifiers
21845,Priscilla Cox,0,64,1.0,0.0,1.0,2.0,7304.0,1602.0,9.6,423.0,469.0,1297.0,818.0,1859.0,2500.0,1418.0,1556.0,329.0,0.1138927954728755,2004.0,1,38.72663974255244,-9.131479929404405,19246.0,0.3795074301153486,0.0832380754442481,0.0965914995323703,0.0219785929543801,0.0243686999896082,0.067390626623714,0.0425023381481866,0.129897121479788,0.0736776473033357,0.08084796840902,9623.0,20.0,0,Diversifiers
15893,Donna Landes,0,27,0.0,0.0,0.0,2.0,4580.0,6762.0,12.0,450.0,344.0,489.0,410.0,1303.0,606.0,819.0,25.0,648.0,0.2430904366681322,2020.0,1,38.75916958513153,-9.16727281310376,15788.0,0.2900937420825943,0.428299974664302,0.0825310362300481,0.0285026602482898,0.0217887002786926,0.0309728908031416,0.0259690904484418,0.0383835824676969,0.0518748416518875,0.0015834811249049,7894.0,4.0,2,Diversifiers
19450,Patricia Davidson,0,47,0.0,0.0,0.0,3.0,3736.0,208.0,10.0,315.0,553.0,451.0,1211.0,2161.0,1937.0,1025.0,2441.0,695.0,0.1885611031743898,2008.0,1,38.70994012498192,-9.142001560451394,14038.0,0.2661347770337655,0.0148169254879612,0.1539393075936743,0.0224390938880182,0.0393930759367431,0.0321270836301467,0.086265849836159,0.1379826186066391,0.0730160991594244,0.1738851688274683,4679.333333333333,16.0,0,Diversifiers
6501,Casey Snell,1,40,0.0,1.0,1.0,3.0,5860.0,3417.0,9.0,304.0,570.0,692.0,493.0,2687.0,1676.0,1036.0,2399.0,1426.0,0.1029532584712048,2012.0,1,38.78024757583355,-9.133695992273031,19134.0,0.3062611058848123,0.178582627783004,0.1404306470157834,0.0158879481551165,0.0297899027908435,0.036165987247831,0.025765652764712,0.0875927668025504,0.0541444548970419,0.1253789066583046,6378.0,12.0,2,Diversifiers
35898,Donna Anderson,0,30,0.0,0.0,0.0,2.0,4281.0,3168.0,9.0,209.0,221.0,536.0,792.0,588.6,655.0,582.0,1045.0,904.0,0.2217027734557378,2017.0,0,38.73622290620229,-9.14952181627225,12077.6,0.3544578393058223,0.2623037689607206,0.0487348479830429,0.017304762535603,0.01829833741803,0.044379678081738,0.0655759422401801,0.0542326289991389,0.0481883817977081,0.0865238126780155,6038.8,7.0,0,Diversifiers
6836,Barbara Woosley,0,28,0.0,0.0,0.0,1.0,6261.0,4574.0,13.0,281.0,320.0,339.0,599.0,792.0,1100.0,985.0,786.0,943.0,0.1756249261665665,2019.0,1,38.7644262523586,-9.09620915522937,16037.0,0.3904096776205026,0.2852154392966265,0.0493857953482571,0.0175219804202781,0.0199538567063665,0.021138616948307,0.0373511255222298,0.0685913824281349,0.0614204651742844,0.0490116605350127,16037.0,5.0,3,Diversifiers
10161,Joanne Marks,0,46,0.0,1.0,1.0,3.0,4141.0,5.0,8.0,282.0,564.0,536.0,1511.0,2233.0,2132.0,1311.0,1905.0,340.0,-0.0382855718189518,2009.0,1,38.78259118923754,-9.177844742974129,14620.0,0.2832421340629275,0.0003419972640218,0.1527359781121751,0.0192886456908344,0.0385772913816689,0.0366621067031463,0.1033515731874145,0.1458276333789329,0.0896716826265389,0.1303009575923392,4873.333333333333,15.0,2,Diversifiers
28946,Julie Vogan,0,71,1.0,0.8,0.0,2.0,4634.0,144.0,10.0,339.0,668.0,1418.0,810.0,1924.0,1928.0,1026.0,2013.0,1201.0,0.3484766827661369,2003.0,1,38.73618575620974,-9.153791638847034,14904.0,0.3109232420826623,0.0096618357487922,0.1290928609769189,0.0227455716586151,0.0448201825013419,0.0951422436929683,0.0543478260869565,0.1293612453032742,0.0688405797101449,0.1350644122383252,7452.0,21.0,0,Diversifiers
36399,Sarah Alvarez,0,80,1.0,1.0,1.0,2.0,5196.0,5311.0,10.0,315.0,762.0,938.0,1085.0,1809.0,2469.0,801.0,1925.0,1148.0,0.2954378661417828,2005.0,1,38.75540585886285,-9.135850041014246,20611.0,0.2520983940614235,0.2576779389646305,0.0877686672165348,0.0152831012566105,0.0369705497064674,0.0455096792974625,0.0526417932172141,0.1197904031827664,0.0388627431953811,0.0933967299015089,10305.5,19.0,0,Diversifiers
23965,Matthew Jebb,1,54,1.0,0.0,1.0,3.0,5674.0,3044.0,12.0,437.0,483.0,365.0,976.0,1801.0,2167.0,1048.0,1742.0,1438.0,0.100061815847502,2005.0,1,38.71002506225541,-9.13907115419164,17737.0,0.3198962620510797,0.1716186502790776,0.1015391554377854,0.0246377628685798,0.0272312115915882,0.020578451823871,0.0550262163838304,0.1221739865817218,0.0590855274285392,0.0982127755539268,5912.333333333333,19.0,0,Diversifiers
26041,Jason Hill,1,29,1.0,1.0,0.0,3.0,5826.0,1849.0,10.0,352.0,607.0,1112.0,1320.0,2811.0,2706.0,1618.0,2174.0,735.0,0.2027208700753766,2018.0,1,38.71638837771554,-9.190937252467362,20375.0,0.2859386503067485,0.0907484662576687,0.137963190184049,0.0172760736196319,0.0297914110429447,0.0545766871165644,0.0647852760736196,0.1328098159509202,0.0794110429447852,0.1066993865030674,6791.666666666667,6.0,0,Diversifiers
17838,Bernadette Ontiveros,0,29,0.0,0.0,0.0,1.0,4713.0,3064.0,7.0,180.0,230.0,409.0,521.0,716.0,1264.0,1098.0,1295.0,165.0,0.1100620221141875,2018.0,1,38.737179554516594,-9.149547453423873,13490.0,0.3493699036323202,0.2271312083024462,0.0530763528539659,0.0133432171979243,0.01704966641957,0.0303187546330615,0.0386212008895478,0.0936990363232023,0.0813936249073387,0.0959970348406226,13490.0,6.0,1,Diversifiers
12853,Starla Doty,0,82,1.0,0.0,1.0,2.0,6715.0,2502.0,12.0,231.0,561.0,1359.0,1352.0,2574.0,2129.0,609.0,2130.0,1175.0,0.2947042994628073,2006.0,1,38.74473211796797,-9.19342852252943,20162.0,0.3330522765598651,0.1240948318619184,0.1276659061601031,0.0114571967066759,0.0278246205733558,0.0674040273782362,0.0670568395992461,0.105594683067156,0.0302053367721456,0.1056442813212975,10081.0,18.0,2,Diversifiers
18678,Edwin Nestor,1,27,1.0,0.0,1.0,1.0,2541.0,2946.0,19.0,438.0,350.0,265.0,802.0,1858.0,749.0,1205.0,1057.0,668.0,0.2162286270885224,2020.0,1,38.77034861120036,-9.199899931053723,12211.0,0.2080910654328064,0.241257882237327,0.1521578904266644,0.0358692981737777,0.0286626811890918,0.0217017443288837,0.0656784866104332,0.0613381377446564,0.0986815166653017,0.0865612971910572,12211.0,4.0,0,Diversifiers
41288,James Boock,1,29,0.0,0.0,0.0,1.0,6534.0,6727.0,13.0,328.0,279.0,485.0,532.0,1669.0,435.0,392.0,386.0,77.0,0.165233716466561,2017.0,0,38.76310978833499,-9.095044198447898,17767.0,0.3677604547757078,0.3786232903697867,0.0939382000337704,0.0184611920977092,0.0157032701075026,0.02729779929082,0.0299431530365283,0.0244835931783643,0.0220633759216525,0.0217256711881578,17767.0,7.0,0,Diversifiers
20108,Leticia Kitts,0,29,0.0,0.0,0.0,1.0,4168.0,5554.0,17.0,156.0,385.0,526.0,634.0,1152.0,835.0,1471.0,387.0,730.0,0.2279868504825095,2018.0,1,38.73651417243303,-9.150311712047234,15268.0,0.2729892585800367,0.3637673565627456,0.0754519255960178,0.010217448257794,0.0252161383285302,0.0344511396384595,0.0415247576630861,0.0546895467644747,0.0963452973539428,0.0253471312549122,15268.0,6.0,3,Diversifiers
38494,Patrick Ferguson,1,29,0.0,0.0,0.0,1.0,5257.0,4441.0,13.0,407.0,325.0,406.0,871.0,1298.0,1321.0,604.0,418.0,380.0,0.2671046679691816,2017.0,0,38.75925342391815,-9.165938139211928,15348.0,0.3425201980714099,0.2893536617148814,0.0845712796455564,0.0265181131091998,0.0211753974459212,0.0264529580401355,0.056750065155069,0.086069846234037,0.0393536617148814,0.027234818868908,15348.0,7.0,0,Diversifiers
44718,Viola Nicholas,0,66,1.0,1.0,1.0,2.0,4542.0,618.0,8.0,433.0,615.0,1379.0,1481.0,1813.0,2491.0,1026.0,2237.0,836.0,0.2693511397069901,2012.0,0,38.74069621214613,-9.161602012736926,16635.0,0.2730387736699729,0.0371505861136158,0.1089870754433423,0.026029455966336,0.0369702434625789,0.082897505259994,0.0890291553952509,0.1497445145776976,0.0616771866546438,0.1344755034565674,8317.5,12.0,0,Diversifiers
14903,Elizabeth Alexander,0,30,0.0,0.0,0.0,1.0,6742.0,6359.0,11.0,374.0,216.0,558.0,668.0,823.0,721.0,729.0,888.0,278.0,0.0405976372531166,2019.0,1,38.73680878356088,-9.150699677168303,18078.0,0.3729394844562451,0.3517535125566987,0.0455249474499391,0.0206881292178338,0.0119482243611018,0.0308662462661798,0.036950990153778,0.0398827303905299,0.0403252572187188,0.0491204779289744,18078.0,5.0,3,Diversifiers
33844,Trinidad Mccray,0,33,1.0,0.0,0.0,1.0,2663.0,4655.0,9.0,139.0,338.0,605.0,756.0,911.0,624.0,979.0,1039.0,92.0,0.2530228142531088,2010.0,0,38.7639467125781,-9.094379138841807,12709.0,0.2095365489023526,0.3662758674954756,0.0716814855614131,0.0109371311668896,0.026595326146825,0.0476040601148792,0.059485404044378,0.049099063655677,0.0770320245495318,0.0817530883625777,12709.0,14.0,0,Diversifiers
8328,Shannon Ross,0,74,1.0,0.0,1.0,2.0,2709.0,269.0,9.0,317.0,731.0,1724.0,1134.0,2101.0,1666.0,1005.0,2297.0,676.0,0.2591791447506733,2007.0,1,38.73734208188375,-9.185993477787482,13953.0,0.1941517953128359,0.0192790080986167,0.1505769368594567,0.0227191285028309,0.0523901669891779,0.1235576578513581,0.0812728445495592,0.119400845696266,0.0720275209632337,0.1646240951766645,6976.5,17.0,2,Diversifiers
27012,Michael Rugg,1,40,2.0,0.0,1.0,2.0,2190.0,2161.0,10.0,244.0,899.0,1287.0,860.0,1693.0,1412.0,1361.0,1942.0,1782.0,0.1740469076608845,2009.0,1,38.77685569359756,-9.129423253293144,14049.0,0.1558829809950886,0.1538187771371628,0.1205067976368424,0.0173677841839276,0.0639903195957007,0.0916079436258808,0.0612143213040074,0.1005053740479749,0.0968752224357605,0.1382304790376539,7024.5,15.0,0,Diversifiers
31353,Jessie Jones,0,43,1.0,2.0,0.0,3.0,3638.0,850.0,11.0,136.0,670.0,1716.0,1437.0,2798.0,1894.0,1335.0,2230.0,741.0,-0.0440485068577277,2011.0,1,38.72188203454022,-9.126798841844256,16704.0,0.2177921455938697,0.0508860153256705,0.1675047892720306,0.0081417624521072,0.0401101532567049,0.1027298850574712,0.0860272988505747,0.1133860153256705,0.0799209770114942,0.1335009578544061,5568.0,13.0,0,Diversifiers
33843,Scott Fortune,1,27,0.0,0.0,0.0,1.0,5421.0,4848.0,18.0,407.0,235.0,514.0,680.0,961.0,535.0,1010.0,1017.0,663.0,0.217244779803384,2018.0,0,38.76013441782848,-9.166095999154685,15628.0,0.3468773995392885,0.3102124392116713,0.0614921934988482,0.0260429997440491,0.0150371128743281,0.0328896851804453,0.0435116457640133,0.034233427181981,0.0646275915024315,0.0650755055029434,15628.0,6.0,0,Diversifiers
2913,Robin Demby,0,30,1.0,1.0,2.0,2.0,4360.0,2990.0,8.0,256.0,829.0,1535.0,1211.0,1303.0,1494.0,517.0,1932.0,636.0,0.1188409941072277,2017.0,1,38.73823109001593,-9.170030772105244,16427.0,0.2654166920314117,0.182017410360991,0.0793206306690205,0.0155840993486333,0.0504656967188165,0.0934437207037194,0.0737200949656054,0.0909478297924149,0.0314725756376696,0.1176112497717172,8213.5,7.0,1,Diversifiers
8619,Stacey Bohannon,0,33,0.0,0.0,0.0,1.0,5668.0,2374.0,13.0,212.0,220.0,318.0,688.0,1395.0,540.0,960.0,477.0,57.0,0.3821919388931309,2010.0,1,38.76328355237325,-9.095203328881688,12852.0,0.4410208527855587,0.1847183317771553,0.1085434173669467,0.0164954870837223,0.0171179582944288,0.0247432306255835,0.0535325241207594,0.042016806722689,0.0746965452847805,0.0371148459383753,12852.0,14.0,1,Diversifiers
26702,Efren Crespo,1,53,1.0,0.0,0.0,2.0,4173.0,3582.0,9.0,466.0,447.0,1117.0,982.0,2315.0,2001.0,561.0,2034.0,429.0,0.2115384200793222,2006.0,1,38.75894856112606,-9.15168224751023,17678.0,0.2360561149451295,0.2026247313044462,0.1309537277972621,0.0263604480144812,0.0252856657992985,0.0631858807557416,0.0555492702794433,0.1131915375042425,0.0317343590903948,0.1150582645095599,8839.0,18.0,0,Diversifiers
44444,John Lawrence,1,31,1.0,1.0,1.0,2.0,5715.0,2794.0,9.0,256.0,540.0,1054.0,1153.0,2459.0,1433.0,513.0,2012.0,1006.0,0.1579508843210213,2016.0,0,38.78473287181503,-9.193510624591102,17929.0,0.3187573205421384,0.1558369122650454,0.137152099949802,0.014278543142395,0.0301188019409894,0.0587874393440794,0.0643092196999274,0.079926376261922,0.0286128618439399,0.1122204250097607,8964.5,8.0,0,Diversifiers
15652,Jesse Freuden,1,36,2.0,1.0,2.0,2.0,4711.0,6250.0,10.0,242.0,882.0,1783.0,1251.0,1705.0,2520.0,1119.0,2304.0,1328.0,0.0104498279732084,2011.0,1,38.7444321008507,-9.117102153291686,22767.0,0.2069222998199147,0.2745201387973822,0.0748890938639258,0.0106294197742346,0.0387402819870865,0.0783151051961171,0.054947950981684,0.1106865199631045,0.0491500856502833,0.1011991039662669,11383.5,13.0,0,Diversifiers
29486,Stephen Ragan,1,31,0.0,0.0,0.0,1.0,4326.0,5502.0,15.0,275.0,317.0,621.0,647.0,935.0,722.0,802.0,987.0,1023.0,0.0765711562349784,2013.0,0,38.73665093706981,-9.149346804194254,15134.0,0.2858464384828862,0.3635522664199815,0.0617814193207347,0.018171005682569,0.0209462138231795,0.0410334346504559,0.0427514206422624,0.0477071494647812,0.0529932602088013,0.0652173913043478,15134.0,11.0,0,Diversifiers
43718,Shawn Nesbitt,1,50,2.0,0.8,1.0,2.0,6227.0,1512.0,9.0,197.0,729.0,840.0,289.0,1976.0,1842.0,805.0,2147.0,616.0,0.1265276565920723,2001.0,0,38.73431535217381,-9.143017901044638,16564.0,0.3759357643081381,0.0912822989616034,0.1192948563148997,0.0118932624969814,0.0440111084279159,0.0507123883120019,0.0174474764549625,0.1112050229413185,0.0485993721323351,0.129618449649843,8282.0,23.0,0,Diversifiers
15954,Phil Jennings,1,79,0.0,1.0,1.0,1.0,4746.0,4256.0,6.0,391.0,1001.0,818.0,1506.0,2478.0,2176.0,934.0,2191.0,1540.0,0.0290639045672431,2007.0,1,38.736030821682974,-9.120018424494427,20497.0,0.2315460799141337,0.2076401424598721,0.1208957408401229,0.0190759623359516,0.0488364150851344,0.0399082792603795,0.0734741669512611,0.1061618773479045,0.04556764404547,0.1068936917597697,20497.0,17.0,0,Diversifiers
20149,Jim White,1,28,0.0,0.0,0.0,1.0,5839.0,7252.0,21.0,303.0,91.0,511.0,640.0,1083.0,950.0,1302.0,864.0,187.0,0.2932150794778878,2019.0,1,38.736935052155175,-9.149882975153204,18835.0,0.3100079638970002,0.3850278736395009,0.0574993363419166,0.0160870719405362,0.0048314308468277,0.027130342447571,0.0339792938677993,0.0504380143350146,0.0691266259623042,0.045872046721529,18835.0,5.0,2,Diversifiers
25243,Mary Heffernan,0,52,1.0,1.0,1.0,2.0,4787.0,2908.0,8.0,312.0,780.0,465.0,930.0,2015.0,2344.0,787.0,2027.0,511.0,0.3430312070397971,2000.0,1,38.74040265987744,-9.174946684866992,17355.0,0.2758282915586286,0.1675597810429271,0.1161048689138576,0.0179775280898876,0.0449438202247191,0.0267934312878133,0.0535868625756266,0.1350619418035148,0.0453471622010947,0.1167963123019302,8677.5,24.0,0,Diversifiers
19300,Tomika Gonzalez,0,29,0.0,0.0,0.0,1.0,5438.0,5388.0,15.0,531.0,228.0,614.0,493.0,1059.0,574.0,828.0,1295.0,457.0,0.1644931106492321,2017.0,1,38.74895753912509,-9.17248771880202,16448.0,0.3306177042801556,0.3275778210116731,0.0643847276264591,0.032283560311284,0.0138618677042801,0.0373297665369649,0.0299732490272373,0.0348978599221789,0.05034046692607,0.0787329766536965,16448.0,7.0,1,Diversifiers
27812,Leo Berger,1,30,0.0,0.0,0.0,1.0,5973.0,4157.0,6.0,335.0,222.0,576.0,1289.0,1323.0,1043.0,679.0,28.0,937.0,0.04145154268279,2014.0,0,38.73658883218379,-9.150398559909108,15625.0,0.382272,0.266048,0.084672,0.02144,0.014208,0.036864,0.082496,0.066752,0.043456,0.001792,15625.0,10.0,0,Diversifiers
11470,Kim Parnell,0,71,1.0,2.0,1.0,3.0,5510.0,2495.0,11.0,180.0,813.0,787.0,976.0,2141.0,1904.0,1040.0,1763.0,1264.0,0.2510217228859732,2006.0,1,38.72532248684351,-9.164200564975143,17609.0,0.3129081719575217,0.1416889090805838,0.1215855528422965,0.0102220455448918,0.0461695723777613,0.0446930546879436,0.05542620251008,0.108126526208189,0.0590607075927082,0.1001192571980237,5869.666666666667,18.0,1,Diversifiers
10401,James Birkline,1,32,0.0,0.0,2.0,1.0,3264.0,906.0,17.0,208.0,957.0,366.0,644.0,2230.0,1231.0,1060.0,2182.0,1054.0,0.2959843381721846,2015.0,1,38.72012718861378,-9.1370457844853,13048.0,0.2501532801961986,0.0694359288779889,0.170907418761496,0.0159411404046597,0.0733445738810545,0.0280502759043531,0.0493562231759656,0.0943439607602697,0.0812385039852851,0.1672286940527284,13048.0,9.0,1,Diversifiers
28328,Patricia Anderson,0,73,2.0,0.0,2.0,2.0,2081.0,2023.0,14.0,312.0,571.0,1390.0,1345.0,3489.0,2275.0,1071.0,1770.0,1857.0,0.0947333170310553,2010.0,1,38.77617139122133,-9.194741834671026,16327.0,0.1274575855944141,0.1239051877258528,0.2136951062656948,0.0191094506032951,0.0349727445335946,0.0851350523672444,0.0823788816071538,0.1393397439823605,0.0655968640901574,0.1084093832302321,8163.5,14.0,0,Diversifiers
16454,Pearl East,0,25,1.0,0.0,2.0,2.0,5082.0,2100.0,7.0,229.0,505.0,945.0,917.0,1962.0,1987.0,924.0,2041.0,893.0,0.183938301789992,2022.0,1,38.73644408292587,-9.148020115541572,16692.0,0.3044572250179727,0.1258087706685837,0.1175413371675054,0.0137191468967169,0.0302540138988737,0.0566139468008626,0.0549364965252815,0.1190390606278456,0.0553558590941768,0.1222741433021806,8346.0,2.0,0,Diversifiers
42923,Curtis Jorgenson,1,59,1.0,0.0,0.0,2.0,2510.0,2581.0,8.0,268.0,697.0,976.0,876.0,1204.0,2017.0,1254.0,1551.0,1694.0,0.2344820962201364,2007.0,0,38.76871869298109,-9.172578359769805,13934.0,0.1801349217740778,0.1852303717525477,0.0864073489306731,0.0192335294961963,0.0500215300703315,0.0700444954786852,0.0628678053681642,0.1447538395292091,0.0899956939859336,0.1113104636141811,6967.0,17.0,0,Diversifiers
3454,Philip Sand,1,51,1.0,1.0,1.0,2.0,6586.0,2102.0,12.0,337.0,650.0,1373.0,661.0,1705.0,2065.0,1429.0,1274.0,512.0,0.2865707366957243,2012.0,1,38.71666467017023,-9.135334034206704,18182.0,0.3622263777362226,0.1156088439115608,0.0937740622593774,0.0185348146518534,0.0357496425035749,0.0755142448575514,0.0363546364536354,0.1135738642613573,0.0785942140578594,0.0700692993070069,9091.0,12.0,3,Diversifiers
8218,Sheree Yokota,0,31,1.0,0.0,0.0,3.0,5595.0,4315.0,21.0,178.0,302.0,549.0,420.0,1033.0,728.0,823.0,861.0,1071.0,0.27299781548667,2011.0,1,38.7482919662192,-9.172086722653145,14804.0,0.3779383950283707,0.291475276952175,0.0697784382599297,0.0120237773574709,0.0203998919211024,0.0370845717373682,0.0283707106187516,0.0491758984058362,0.0555930829505539,0.0581599567684409,4934.666666666667,13.0,3,Diversifiers
46394,Elliot Wells,1,28,1.0,1.0,1.0,2.0,4188.0,1989.0,10.4,179.0,748.0,1752.0,1146.0,2153.0,2631.0,656.0,2022.0,1352.0,0.1986936806009703,2019.0,0,38.76380924691299,-9.17199711882788,17464.0,0.2398076042143838,0.113891433806688,0.1232821804855703,0.0102496564360971,0.0428309665597801,0.1003206596426935,0.0656207054512139,0.1506527714154832,0.037562986715529,0.1157810352725607,8732.0,5.0,0,Diversifiers
34042,Gladys Edwards,0,40,1.0,1.0,1.0,2.0,4463.0,2409.0,11.2,148.0,574.0,1292.0,1238.0,1775.0,1421.0,574.0,2308.0,1758.0,0.1384334079271539,2003.0,1,38.735243930877104,-9.151689442647102,16202.0,0.2754598197753364,0.1486853474879644,0.1095543760029626,0.0091346747315146,0.0354277249722256,0.0797432415751141,0.0764103197136156,0.087705221577583,0.0354277249722256,0.1424515491914578,8101.0,21.0,0,Diversifiers
15131,James Garmon,1,84,1.0,1.0,1.0,2.0,5846.0,2695.0,9.0,362.0,827.0,1395.0,1367.0,2382.0,1990.0,828.0,1419.0,256.0,0.238595989587148,2005.0,1,38.72668760475353,-9.144544474231353,19111.0,0.3058971273088797,0.1410182617340798,0.1246402595363926,0.0189419705928522,0.0432735074041128,0.0729946104337816,0.0715294856365444,0.1041285123750719,0.0433258332897284,0.0742504316885563,9555.5,19.0,0,Diversifiers
2620,Leila Sutton,0,77,0.0,1.0,0.0,3.0,4934.0,4017.0,12.0,325.0,683.0,650.0,691.0,1661.0,1666.0,1364.0,2396.0,545.0,0.3125993410395024,2005.0,1,38.72942720891327,-9.175088079768788,18387.0,0.2683417632022625,0.2184695708924783,0.0903355631696307,0.017675531625605,0.0371458095393484,0.03535106325121,0.0375808995485941,0.0906074944254092,0.0741828465763854,0.130309457769076,6129.0,19.0,1,Diversifiers
37400,Victoria Watkins,0,49,1.0,1.0,1.0,1.0,4572.0,655.0,10.4,270.0,618.0,947.0,1209.0,2000.0,2110.0,1212.0,1967.0,1017.0,0.3146078973612377,2006.0,1,38.76393828448278,-9.13466590801418,15560.0,0.2938303341902313,0.0420951156812339,0.1285347043701799,0.0173521850899742,0.0397172236503856,0.0608611825192802,0.0776992287917737,0.1356041131105398,0.077892030848329,0.1264138817480719,15560.0,18.0,0,Diversifiers
377,Freida Rodriguez,0,32,0.0,2.0,1.0,2.0,5370.0,2653.0,8.0,311.0,858.0,760.0,1408.0,1925.0,1537.0,1003.0,2364.0,49.0,0.0894672204638514,2015.0,1,38.7870205628283,-9.136442745407145,18189.0,0.2952333828137886,0.1458573863323987,0.1058331958876243,0.0170982461927538,0.0471713673099125,0.0417834955192698,0.0774094232778052,0.0845016218593655,0.0551432184287206,0.1299686623783605,9094.5,9.0,3,Diversifiers
23595,Gregory Olson,1,81,0.0,0.0,1.0,2.0,3095.0,3198.0,11.0,103.0,681.0,737.0,1322.0,2178.0,2505.0,1086.0,1821.0,1245.0,0.1911596267562923,2003.0,1,38.74955009378783,-9.177965621642226,16726.0,0.1850412531388257,0.1911993303838335,0.130216429510941,0.0061580772450077,0.0407150544063135,0.0440631352385507,0.0790386225038861,0.1497668300848977,0.0649288532823149,0.1088724142054286,8363.0,21.0,0,Diversifiers
16444,Joanne Trahan,0,51,1.0,1.0,2.0,3.0,4836.0,1970.0,8.0,164.0,589.0,1703.0,903.0,1775.0,2148.0,891.0,2072.0,284.0,0.3532714232669756,2004.0,1,38.781111400186326,-9.173194848644515,17051.0,0.2836197290481497,0.1155357457040642,0.1040994663069614,0.0096182042108967,0.0345434285379156,0.0998768400680312,0.0529587707465837,0.1259750161280863,0.052254999706762,0.1215177995425488,5683.666666666667,20.0,0,Diversifiers
29371,Sharon Miller,0,74,1.0,1.0,1.0,1.0,6774.0,342.0,6.0,425.0,535.0,702.0,1458.0,2363.0,2383.0,1231.0,1892.0,899.0,0.2568389097574243,2011.0,1,38.7861454175914,-9.14281915487766,18105.0,0.3741507870753935,0.0188898094449047,0.1305164319248826,0.0234741784037558,0.0295498481082573,0.0387738193869096,0.0805302402651201,0.1316210991438829,0.067992267329467,0.1045015189174261,18105.0,13.0,0,Diversifiers
42757,Dorothy Doughty,0,30,1.0,1.0,1.0,2.0,3289.0,3240.0,10.2,378.0,512.0,966.0,1427.0,2528.0,2216.0,1186.0,1930.0,1062.0,0.2744518590435018,2017.0,0,38.70984919514213,-9.146496598899262,17672.0,0.1861136260751471,0.1833408782254413,0.1430511543684925,0.0213897691263014,0.0289723856948845,0.0546627433227704,0.0807492077863286,0.1253961068356722,0.0671118153010412,0.1092123132639203,8836.0,7.0,0,Diversifiers
46332,Jerri Miller,0,28,1.0,0.0,0.0,1.0,3230.0,1714.0,9.0,364.0,266.0,266.0,665.0,871.0,627.0,690.0,381.0,697.0,0.215409122123251,2016.0,0,38.76090149572273,-9.167180306306165,9074.0,0.3559620894864448,0.1888913378884725,0.0959885386819484,0.0401146131805157,0.0293145250165307,0.0293145250165307,0.0732863125413268,0.069098523253251,0.0760414370729557,0.0419880978620233,9074.0,8.0,0,Diversifiers
6907,John Nguyen,1,75,1.0,1.0,1.0,3.0,5414.0,1889.0,11.0,326.0,715.0,102.0,415.0,1889.0,1582.0,909.0,2640.0,1191.0,0.2041106922993237,2009.0,1,38.78407196132864,-9.14255933836838,15881.0,0.3409105220074302,0.1189471695737044,0.1189471695737044,0.0205276745796864,0.0450223537560607,0.0064227693470184,0.0261318556765946,0.0996158932057175,0.057238209180782,0.166236383099301,5293.666666666667,15.0,3,Diversifiers
34490,Wendy Koch,0,32,0.0,0.0,0.0,1.0,5107.0,5219.0,12.0,316.0,204.0,607.0,506.0,1445.0,483.0,472.0,616.0,75.0,0.1626684498609593,2015.0,0,38.736532638019966,-9.149357884563358,14975.0,0.3410350584307178,0.3485141903171953,0.0964941569282136,0.0211018363939899,0.0136227045075125,0.0405342237061769,0.0337896494156928,0.032253756260434,0.0315191986644407,0.041135225375626,14975.0,9.0,0,Diversifiers
338,Hope Phillips,0,77,2.0,1.0,0.0,3.0,4192.0,1603.0,11.0,290.0,1072.0,1166.0,1527.0,2088.0,1544.0,820.0,2130.0,788.0,0.2677733434015646,2005.0,1,38.71591339776394,-9.193474655611414,16432.0,0.2551119766309639,0.0975535540408958,0.1270691333982473,0.0176484907497565,0.0652385589094449,0.0709591041869522,0.0929284323271665,0.0939629990262901,0.049902629016553,0.1296251217137293,5477.333333333333,19.0,1,Diversifiers
10163,Alvin Dietrich,1,30,0.0,0.0,0.0,1.0,3553.0,3615.0,15.0,569.0,270.0,575.0,779.0,390.0,340.0,528.0,292.0,335.0,0.1670151243748324,2014.0,1,38.764300594530944,-9.09609531950746,10911.0,0.3256346805975621,0.3313170195215837,0.0357437448446521,0.0521492072220694,0.0247456695078361,0.0526991109889102,0.0713958390614975,0.0311612134543121,0.0483915314819906,0.0267619833195857,10911.0,10.0,3,Diversifiers
19047,Cathy Myers,0,36,0.0,1.0,1.0,2.0,4863.0,1614.0,8.0,268.0,986.0,911.0,1326.0,1038.0,1985.0,1343.0,2110.0,214.0,0.1113598141519231,2011.0,1,38.72732247021593,-9.180223151282362,16444.0,0.2957309657017757,0.0981513013865239,0.0631233276575042,0.0162977377766966,0.0599610800291899,0.0554001459498905,0.0806373145220141,0.1207127219654585,0.0816711262466553,0.1283142787642909,8222.0,13.0,0,Diversifiers
6533,John Kaufman,1,32,0.0,0.0,0.0,1.0,3211.0,2449.0,10.0,219.0,263.0,392.0,770.0,652.0,624.0,968.0,236.0,949.0,0.1651089849743393,2014.0,1,38.76102341335632,-9.16656296347962,9784.0,0.3281888798037612,0.2503066230580539,0.0666394112837285,0.0223834832379394,0.0268806214227309,0.0400654129190515,0.0786999182338511,0.0637775960752248,0.0989370400654129,0.0241210139002453,9784.0,10.0,2,Diversifiers
37051,Katie Bachorski,0,27,0.0,0.0,0.0,2.0,3443.0,7604.0,9.0,324.0,250.0,374.0,600.0,1136.0,1188.0,1651.0,837.0,219.0,0.1743984773406239,2020.0,0,38.75958278221185,-9.166078079032925,17407.0,0.1977939909231918,0.4368357557304532,0.0652611018555753,0.018613201585569,0.0143620382604699,0.021485609237663,0.0344688918251278,0.068248405813753,0.0948469006721434,0.0480841040960533,8703.5,4.0,0,Diversifiers
9232,Carol Potter,0,33,1.0,0.0,1.0,2.0,4567.0,4089.0,7.0,345.0,351.0,2041.0,2017.0,2168.0,2157.0,931.0,1894.0,1145.0,0.2014361927351093,2010.0,1,38.76726469392232,-9.189743461958326,20560.0,0.2221303501945525,0.1988813229571984,0.1054474708171206,0.0167801556420233,0.0170719844357976,0.0992704280155642,0.0981031128404669,0.1049124513618677,0.0452821011673151,0.0921206225680933,10280.0,14.0,3,Diversifiers
1701,Theodore Peachey,1,31,0.0,0.0,0.0,1.0,5153.0,6228.0,10.0,277.0,256.0,663.0,583.0,1152.0,1104.0,1283.0,262.0,374.0,0.1013572847244746,2015.0,1,38.73610797677877,-9.150148038606666,16961.0,0.3038146335711337,0.3671953304640056,0.0679205235540357,0.0163315842226283,0.0150934496786746,0.0390896763162549,0.0343729732916691,0.0650905017392842,0.075644124756795,0.0154472024055185,16961.0,9.0,1,Diversifiers
39920,Anthony Gidney,1,45,2.0,1.0,0.0,2.0,3332.0,1384.0,9.0,176.0,465.0,747.0,1560.0,2189.0,1458.0,688.0,1845.0,417.0,0.3313853670761803,2005.0,0,38.7605359597649,-9.123381902602928,13844.0,0.2406818838485986,0.0999711066165848,0.1581190407396706,0.012713088702687,0.0335885582201675,0.0539583935278821,0.1126841953192718,0.1053163825483964,0.0496966194741404,0.1332707310026004,6922.0,19.0,0,Diversifiers
17016,Melissa Nolting,0,40,1.0,1.0,0.0,3.0,3167.0,2943.0,11.0,261.0,774.0,1214.0,555.0,2179.0,2088.0,1043.0,1546.0,1202.0,0.0982576853839727,2006.0,1,38.75317838111712,-9.143041175784616,15770.0,0.2008243500317057,0.1866201648700063,0.1381737476220672,0.0165504121750158,0.0490805326569435,0.0769816106531388,0.0351934051997463,0.1324032974001268,0.0661382371591629,0.0980342422320862,5256.666666666667,18.0,0,Diversifiers
4047,Fred Trammell,1,79,1.0,0.0,2.0,2.0,4159.0,2733.0,8.0,213.0,514.0,1397.0,1121.0,2485.0,1187.0,1580.0,2011.0,1193.0,0.2898136283482175,2005.0,1,38.77197516570386,-9.185740761093076,17400.0,0.2390229885057471,0.1570689655172413,0.1428160919540229,0.0122413793103448,0.0295402298850574,0.080287356321839,0.0644252873563218,0.0682183908045977,0.0908045977011494,0.1155747126436781,8700.0,19.0,1,Diversifiers
32506,Jared Smith,1,71,1.0,1.0,1.0,2.0,3920.0,3338.0,9.0,241.0,309.0,668.0,1304.0,1829.0,1918.0,1250.0,1920.0,340.0,-0.0072996013652467,2008.0,1,38.74440070582055,-9.194905637903249,16697.0,0.2347727136611367,0.1999161526022639,0.1095406360424028,0.0144337306102892,0.0185063185003294,0.0400071869198059,0.0780978618913577,0.1148709348984847,0.0748637479786788,0.1149907168952506,8348.5,16.0,0,Diversifiers
46415,Santo Lisa,1,76,1.0,0.0,2.0,2.0,4616.0,1257.0,8.0,373.0,456.0,1095.0,1129.0,1735.0,1588.0,1295.0,1880.0,1362.0,0.1891504711312987,2004.0,0,38.75177140703121,-9.160494418547469,15424.0,0.2992738589211618,0.0814963692946058,0.1124870331950207,0.024183091286307,0.029564315352697,0.0709932572614107,0.0731976141078838,0.1029564315352697,0.0839600622406639,0.1218879668049792,7712.0,20.0,0,Diversifiers
31546,Lisa Brown,0,66,2.0,2.0,1.0,1.0,2640.0,374.0,8.0,373.0,830.0,791.0,71.0,1743.0,1399.0,448.0,2064.0,1408.0,0.0591458969087813,2007.0,1,38.72034972795211,-9.14607737484466,10733.0,0.2459703717506755,0.034845802664679,0.1623963477126618,0.0347526320693189,0.0773315941488866,0.0736979409298425,0.0066151122705674,0.130345662908786,0.0417404267213267,0.1923041088232553,10733.0,17.0,0,Diversifiers
17566,Jose Lewis,1,27,0.0,0.0,0.0,1.0,4504.0,3611.0,9.0,339.0,336.0,460.0,888.0,781.0,889.0,997.0,1214.0,1052.0,0.2525470362732939,2016.0,1,38.76310751581195,-9.096350914953652,14019.0,0.3212782652114986,0.2575789999286682,0.0557101077109636,0.0241814680077038,0.0239674727156002,0.0328126114558813,0.0633426064626578,0.0634139382266923,0.071117768742421,0.0865967615379128,14019.0,8.0,1,Diversifiers
23748,Mary Lundsten,0,26,1.0,1.0,0.0,2.0,6228.0,2574.0,9.0,342.0,634.0,1201.0,1473.0,1648.0,1844.0,1033.0,2018.0,1377.0,0.1894066463147647,2021.0,1,38.77934685500068,-9.172493255118567,18995.0,0.3278757567780995,0.135509344564359,0.0867596735983153,0.0180047380889707,0.0333772045275072,0.0632271650434324,0.0775467228217952,0.0970781784680179,0.0543827322979731,0.1062384838115293,9497.5,3.0,0,Diversifiers
46959,John Yasutake,1,33,0.0,0.0,0.0,1.0,5122.0,5740.0,14.2,330.0,214.0,439.0,459.0,1063.0,319.0,1041.0,1796.0,1244.0,0.0381882784376899,2011.0,0,38.76476453324861,-9.094539735963318,16523.0,0.3099921321793863,0.347394540942928,0.0643345639411729,0.0199721600193669,0.0129516431640743,0.0265690249954608,0.0277794589360285,0.0193064213520547,0.0630030866065484,0.1086969678629788,16523.0,13.0,0,Diversifiers
16086,Yong Colburn,0,32,0.0,0.0,0.0,1.0,2854.0,2897.0,16.0,321.0,374.0,544.0,1027.0,809.0,399.0,1117.0,398.0,83.0,0.3824483365342253,2012.0,1,38.760730266304336,-9.167064913916974,10740.0,0.2657355679702048,0.2697392923649906,0.0753258845437616,0.0298882681564245,0.0348230912476722,0.0506517690875232,0.0956238361266294,0.0371508379888268,0.1040037243947858,0.0370577281191806,10740.0,12.0,1,Diversifiers
29690,Chantal Phillips,0,29,0.0,0.0,0.0,2.0,5051.0,4938.0,7.0,203.0,155.0,435.0,644.0,1381.0,821.0,1485.0,702.0,182.0,0.1604325692393525,2018.0,0,38.73584138359068,-9.149378101075886,15815.0,0.3193803351248814,0.3122352197281062,0.0873221625039519,0.0128359152703129,0.0098008220044261,0.0275055327220992,0.0407208346506481,0.0519127410686057,0.0938981979133733,0.0443882390135946,7907.5,6.0,0,Diversifiers
39212,Susan Poundstone,0,69,2.0,1.0,1.0,2.0,6157.0,282.0,6.0,316.0,577.0,1441.0,1387.0,1286.0,1114.0,1137.0,2101.0,243.0,0.3371642463238458,2011.0,1,38.74942631073867,-9.1418482685446,15798.0,0.3897328775794404,0.0178503608051652,0.0814027092036966,0.0200025319660716,0.0365236105836181,0.0912140777313584,0.0877959235346246,0.0705152550955817,0.0719711355867831,0.1329915179136599,7899.0,13.0,0,Diversifiers
