customer_id,customer_name,customer_gender,customer_age,kids_home,teens_home,number_complaints,distinct_stores_visited,lifetime_spend_groceries,lifetime_spend_electronics,typical_hour,lifetime_spend_vegetables,lifetime_spend_nonalcohol_drinks,lifetime_spend_alcohol_drinks,lifetime_spend_meat,lifetime_spend_fish,lifetime_spend_hygiene,lifetime_spend_videogames,lifetime_spend_petfood,lifetime_total_distinct_products,percentage_of_products_bought_promotion,year_first_transaction,loyalty_card_number,latitude,longitude,total_lifetime_spend,percentage_lifetime_spend_groceries,percentage_lifetime_spend_electronics,percentage_lifetime_spend_fish,percentage_lifetime_spend_vegetables,percentage_lifetime_spend_nonalcohol_drinks,percentage_lifetime_spend_alcohol_drinks,percentage_lifetime_spend_meat,percentage_lifetime_spend_hygiene,percentage_lifetime_spend_videogames,percentage_lifetime_spend_petfood,avg_spend_per_store,loyalty_years,degree,cluster_ward
13548,Anna Yeary,0,40,1.0,0.0,0.0,1.0,3724.0,125.0,14.0,1085.0,261.0,50.0,2.0,2.0,313.0,390.0,525.0,42.0,0.2601224524026374,2012.0,1,38.77782087722945,-9.127435437124012,6477.0,0.5749575420719469,0.0192990582059595,0.0003087849312953,0.1675158252277289,0.0402964335340435,0.0077196232823838,0.0003087849312953,0.0483248417477227,0.0602130616025937,0.0810560444650301,6477.0,12.0,1,Vegetarians
12394,Robert Massey,1,40,1.0,0.0,0.0,1.0,2932.0,677.0,6.0,869.0,383.0,98.0,0.0,1.0,706.0,109.0,515.0,139.0,0.1742914332085685,2010.0,1,38.771725580081984,-9.194595509125252,6290.0,0.4661367249602544,0.107631160572337,0.0001589825119236,0.1381558028616852,0.0608903020667726,0.0155802861685214,0.0,0.112241653418124,0.017329093799682,0.0818759936406995,6290.0,14.0,3,Vegetarians
39427,Shawn Salisbury,1,78,1.0,0.0,0.0,2.0,2515.0,233.0,11.0,1008.0,458.0,225.0,1.0,1.0,285.0,113.0,547.0,277.0,0.197797752824863,2012.0,0,38.7212010451811,-9.12029497462586,5386.0,0.4669513553657631,0.0432603044931303,0.0001856665428889,0.1871518752320831,0.0850352766431489,0.0417749721500185,0.0001856665428889,0.0529149647233568,0.0209803193464537,0.1015595989602673,2693.0,12.0,0,Vegetarians
39469,Whitney Adams,0,57,1.0,0.0,1.0,1.0,2518.0,1365.0,17.0,605.0,298.0,163.0,2.0,2.0,666.0,146.0,534.0,260.0,0.2337694439615666,2014.0,0,38.71372416879591,-9.181504474118857,6299.0,0.3997459914272107,0.2167010636608985,0.0003175107159866,0.096046991585966,0.047309096682013,0.0258771233529131,0.0003175107159866,0.1057310684235593,0.0231782822670265,0.0847753611684394,6299.0,10.0,0,Vegetarians
48615,Ashley Kluesner,0,73,1.0,1.0,1.0,1.0,3671.0,25.0,12.0,1240.0,296.0,146.0,1.0,0.0,643.0,135.0,443.0,374.0,0.3763503996314949,2012.0,0,38.74434660761773,-9.15541298498962,6600.0,0.5562121212121212,0.0037878787878787,0.0,0.1878787878787878,0.0448484848484848,0.0221212121212121,0.0001515151515151,0.0974242424242424,0.0204545454545454,0.0671212121212121,6600.0,12.0,0,Vegetarians
25509,Brian Swanson,1,81,1.0,1.0,0.0,1.0,2788.0,47.0,7.0,1224.0,119.0,146.0,2.0,3.0,732.0,93.0,400.0,102.0,0.1722892414416142,2011.0,0,38.77436046120987,-9.194412795076095,5554.0,0.5019805545552755,0.0084623694634497,0.0005401512423478,0.2203817068779258,0.0214259992797983,0.026287360460929,0.0003601008282319,0.1317969031328772,0.0167446885127835,0.0720201656463809,5554.0,13.0,0,Vegetarians
20257,Randall Prochak,1,36,1.0,1.0,1.0,1.0,3639.0,565.0,6.0,945.0,346.0,87.0,0.0,1.0,622.0,47.0,504.0,88.0,0.0827882127586524,2011.0,1,38.76521896029993,-9.140793407541253,6756.0,0.5386323268206039,0.0836293664890467,0.0001480165778567,0.1398756660746003,0.0512137359384251,0.0128774422735346,0.0,0.0920663114268798,0.0069567791592658,0.0746003552397868,6756.0,13.0,0,Vegetarians
5728,William Macpherson,1,74,1.0,0.0,0.0,1.0,3849.0,923.0,12.0,1152.0,448.0,300.0,0.0,0.0,124.0,39.0,416.0,99.0,0.249504503963714,2009.0,1,38.73751111516624,-9.15367127054314,7251.0,0.5308233347124535,0.1272927872017652,0.0,0.1588746379809681,0.0617845814370431,0.0413736036408771,0.0,0.0171010895048958,0.005378568473314,0.0573713970486829,7251.0,15.0,2,Vegetarians
48259,Thomas Claypoole,1,79,1.0,1.0,0.0,2.0,3617.0,944.0,6.0,1159.0,443.0,199.0,2.0,0.0,312.0,228.0,703.0,233.0,0.1393255221579385,2007.0,0,38.714306247962256,-9.17910395622375,7607.0,0.4754831076639937,0.1240962271591954,0.0,0.1523596687261732,0.0582358354147495,0.0261601156829236,0.0002629157355067,0.0410148547390561,0.0299723938477717,0.0924148810306296,3803.5,17.0,0,Vegetarians
22301,Ricky Rossiter,1,58,1.0,1.0,1.0,1.0,3522.0,724.0,10.0,983.0,256.0,53.0,1.0,2.0,281.0,108.0,360.0,298.0,0.037717433633379,2011.0,1,38.76313820404857,-9.12536499815637,6290.0,0.5599364069952305,0.1151033386327504,0.0003179650238473,0.1562798092209857,0.0406995230524642,0.0084260731319554,0.0001589825119236,0.0446740858505564,0.0171701112877583,0.0572337042925278,6290.0,13.0,0,Vegetarians
41077,Michael Fain,1,60,1.0,1.0,1.0,1.0,1886.0,139.0,12.6,762.0,459.0,287.0,0.0,0.0,378.0,29.0,614.0,117.0,0.1328015050778327,2006.0,0,38.77141543130105,-9.136860141178172,4554.0,0.4141414141414141,0.0305226174791392,0.0,0.1673254281949934,0.1007905138339921,0.0630215195432586,0.0,0.0830039525691699,0.0063680281071585,0.1348265261308739,4554.0,18.0,0,Vegetarians
40267,Sarah Ragusa,0,83,1.0,1.0,1.0,1.0,2843.0,340.0,17.0,1111.0,386.0,108.0,0.0,0.0,382.0,155.0,607.0,265.0,0.2061401511244813,2011.0,0,38.78397434344576,-9.12504239015505,5932.0,0.4792650033715441,0.057316250842886,0.0,0.1872892784895482,0.0650708024275118,0.0182063385030343,0.0,0.064396493594066,0.0261294672960215,0.1023263654753877,5932.0,13.0,0,Vegetarians
26317,Christopher Peeler,1,53,1.0,1.0,0.0,1.0,3407.0,494.0,7.0,904.0,259.0,131.0,0.0,1.0,531.0,147.0,419.0,194.0,0.2665723885764266,2013.0,0,38.71908073686592,-9.1199718134549,6293.0,0.541395201017003,0.0784999205466391,0.0001589067217543,0.1436516764659145,0.0411568409343715,0.0208167805498172,0.0,0.0843794692515493,0.0233592880978865,0.0665819164150643,6293.0,11.0,0,Vegetarians
17727,Chris Simmons,1,45,1.0,1.0,0.0,2.0,2627.0,185.0,11.0,1000.0,292.0,109.0,1.0,0.0,661.0,100.0,580.0,193.0,0.1134105571877537,2008.0,1,38.76082766501606,-9.11850014298177,5555.0,0.4729072907290729,0.0333033303330333,0.0,0.18001800180018,0.0525652565256525,0.0196219621962196,0.0001800180018001,0.118991899189919,0.018001800180018,0.1044104410441044,2777.5,16.0,1,Vegetarians
5499,Marcus Gercak,1,35,1.0,0.0,0.0,1.0,2120.0,112.0,12.0,828.0,273.0,129.0,0.0,0.0,701.0,371.0,731.0,6.0,0.2883747240975114,2012.0,1,38.73637796861572,-9.161939687464658,5265.0,0.402659069325736,0.0212725546058879,0.0,0.1572649572649572,0.0518518518518518,0.0245014245014245,0.0,0.1331433998100664,0.0704653371320038,0.1388414055080721,5265.0,12.0,3,Vegetarians
24173,Michael Mcrary,1,60,1.0,0.0,0.0,1.0,3487.0,712.0,17.0,899.0,50.0,126.0,1.0,0.0,740.0,256.0,280.0,234.0,0.3688954106987417,2009.0,1,38.71479141691482,-9.179052705339338,6551.0,0.5322851473057548,0.108685696840177,0.0,0.1372309571057853,0.0076324225309113,0.0192337047778965,0.0001526484506182,0.1129598534574874,0.0390780033582659,0.0427415661731033,6551.0,15.0,0,Vegetarians
33738,Charleen Galvez,0,51,1.0,0.0,1.0,1.0,2205.0,418.0,13.0,1212.0,282.0,71.0,1.0,2.0,362.0,208.0,474.0,164.0,0.1951622639665873,2013.0,0,38.7356781497674,-9.195283504459177,5235.0,0.4212034383954154,0.0798471824259789,0.0003820439350525,0.2315186246418338,0.0538681948424068,0.0135625596943648,0.0001910219675262,0.0691499522445081,0.0397325692454632,0.0905444126074498,5235.0,11.0,0,Vegetarians
32785,William Mcdowell,1,69,1.0,1.0,0.0,1.0,2805.0,531.0,17.0,863.0,216.0,15.0,0.0,0.0,532.0,275.0,526.0,203.0,0.215092876217663,2014.0,0,38.76656338994024,-9.191137106909531,5763.0,0.4867256637168141,0.0921395106715252,0.0,0.1497483949331945,0.0374804789172306,0.0026028110359187,0.0,0.0923130314072531,0.0477182023251778,0.0912719069928856,5763.0,10.0,0,Vegetarians
33205,Dennis Stilson,1,46,1.0,0.0,1.0,1.0,3245.0,643.0,14.0,1156.0,398.0,155.0,0.0,1.0,620.0,167.0,397.0,268.0,0.1296995296611596,2008.0,0,38.73795344490166,-9.15931491837139,6782.0,0.4784724270126806,0.0948097906222353,0.0001474491300501,0.1704511943379534,0.0586847537599528,0.0228546151577705,0.0,0.0914184606310822,0.0246240047183721,0.0585373046299026,6782.0,16.0,0,Vegetarians
48607,Mandy Stewart,0,75,1.0,0.0,1.0,1.0,3126.0,921.0,9.0,1068.0,119.0,56.0,1.0,1.0,483.0,87.0,566.0,178.0,0.2032957470943463,2003.0,0,38.7294355231486,-9.13185884739324,6428.0,0.4863098942128189,0.1432794026135656,0.0001555693839452,0.1661481020535158,0.0185127566894835,0.0087118855009334,0.0001555693839452,0.0751400124455507,0.0135345364032358,0.0880522713130056,6428.0,21.0,0,Vegetarians
21329,Gale Griggs,1,60,1.0,1.0,0.0,1.0,3463.0,57.0,15.0,1195.0,222.0,243.0,1.0,1.0,416.0,317.0,535.0,295.0,0.2528057257105797,2005.0,1,38.76058074677425,-9.126582108746613,6450.0,0.5368992248062016,0.0088372093023255,0.0001550387596899,0.1852713178294573,0.0344186046511627,0.0376744186046511,0.0001550387596899,0.0644961240310077,0.0491472868217054,0.0829457364341085,6450.0,19.0,0,Vegetarians
43287,Deborah Hill,0,48,1.0,1.0,1.0,1.0,3210.0,576.0,12.0,1137.0,392.0,146.0,0.0,0.0,618.0,316.0,292.0,166.0,0.2877379481551729,2010.0,0,38.77843277939246,-9.157534890770837,6687.0,0.4800358905338717,0.0861372812920592,0.0,0.1700314042171377,0.0586212053237625,0.0218334081052789,0.0,0.0924181247196052,0.0472558695977269,0.0436668162105578,6687.0,14.0,0,Vegetarians
8988,Matthew Adkins,1,52,1.0,1.0,1.0,1.0,2458.0,825.0,7.0,1216.0,329.0,1.0,0.0,2.0,496.0,207.0,471.0,190.0,0.1089542445656031,2010.0,1,38.748830538959645,-9.136038740410836,6005.0,0.4093255620316403,0.1373855120732722,0.0003330557868442,0.2024979184013322,0.0547876769358867,0.0001665278934221,0.0,0.0825978351373855,0.0344712739383846,0.0784346378018318,6005.0,14.0,1,Vegetarians
5753,Jerry Schaub,1,51,1.0,0.0,0.0,2.0,2020.0,1202.0,15.0,1160.0,317.0,140.0,2.0,2.0,805.0,395.0,552.0,321.0,0.2049367567920274,2009.0,1,38.75560055589085,-9.116611773658976,6595.0,0.3062926459438969,0.1822592873388931,0.000303260045489,0.1758908263836239,0.0480667172100075,0.0212282031842304,0.000303260045489,0.1220621683093252,0.0598938589840788,0.0836997725549658,3297.5,15.0,1,Vegetarians
12777,Virginia Harriss,0,42,1.0,1.0,0.0,1.0,2999.0,517.0,9.0,951.0,469.0,1.0,1.0,0.0,533.0,123.0,229.0,222.0,0.2471314070659176,2009.0,1,38.75846757017781,-9.1844656358889,5823.0,0.5150266185814872,0.0887858492186158,0.0,0.1633178773827923,0.0805426755967714,0.0001717327837884,0.0001717327837884,0.0915335737592306,0.0211231324059763,0.0393268074875493,5823.0,15.0,2,Vegetarians
1615,Alicia Hoppe,0,38,1.0,1.0,1.0,1.0,2974.0,90.0,15.0,880.0,266.0,46.0,1.0,0.0,284.0,209.0,631.0,92.0,0.2479141880561732,2012.0,1,38.7291419326468,-9.132190097345434,5381.0,0.5526853744657126,0.0167255157034008,0.0,0.1635383757665861,0.049433190856718,0.0085485969150715,0.0001858390633711,0.0527782939973982,0.0388403642445642,0.1172644489871771,5381.0,12.0,2,Vegetarians
7302,Thomas Grullon,1,44,1.0,1.0,0.0,2.0,2576.0,101.0,10.0,1120.0,325.0,335.0,1.0,0.0,697.0,464.0,438.0,96.0,0.2635000240803101,2011.0,1,38.77740302735071,-9.160035884782364,6057.0,0.4252930493643718,0.0166749215783391,0.0,0.1849100214627703,0.0536569258708931,0.0553079082053822,0.0001650982334489,0.1150734687138847,0.0766055803202905,0.0723130262506191,3028.5,13.0,1,Vegetarians
23838,Betty Thomas,0,32,1.0,0.0,0.0,1.0,2897.0,17.0,17.0,1056.0,434.0,113.0,0.0,0.0,421.0,272.0,469.0,396.0,0.1992901556925795,2014.0,1,38.77646356705216,-9.140005949248058,5679.0,0.5101250220109174,0.0029934847684451,0.0,0.1859482303222398,0.0764219052650114,0.0198978693431942,0.0,0.0741327698538475,0.0478957562951223,0.082584962141222,5679.0,10.0,0,Vegetarians
30107,Stacey Jones,0,63,1.0,1.0,1.0,1.0,2558.0,491.0,15.0,1107.0,485.0,86.0,0.0,0.0,637.0,263.0,644.0,352.0,0.2580437282310721,2010.0,0,38.76944243430985,-9.123639816179915,6271.0,0.4079094243342369,0.0782969223409344,0.0,0.1765268697177483,0.0773401371392122,0.013713921224685,0.0,0.1015786955828416,0.0419390846754903,0.1026949449848509,6271.0,14.0,0,Vegetarians
4669,Sandy Buster,0,83,1.0,0.0,0.0,1.0,4311.0,312.0,16.0,925.0,214.0,91.0,2.0,0.0,517.0,379.0,300.0,221.0,0.2000479308292714,2011.0,1,38.73204334142081,-9.1427005965945,7051.0,0.6114026379236988,0.0442490426889802,0.0,0.1311870656644447,0.0303503049212877,0.0129059707842859,0.0002836477095447,0.0733229329173166,0.0537512409587292,0.0425471564317118,7051.0,13.0,2,Vegetarians
4351,Jennifer Williams,0,60,1.0,0.0,1.0,1.0,2996.0,65.0,13.0,1092.0,377.0,74.0,0.0,1.0,275.0,119.0,454.0,142.0,0.1783254270252023,2010.0,1,38.77610782969239,-9.121887349034912,5453.0,0.5494223363286265,0.0119200440124702,0.0001833852924995,0.2002567394094993,0.0691362552723271,0.013570511644966,0.0,0.0504309554373739,0.0218228498074454,0.0832569227947918,5453.0,14.0,2,Vegetarians
15855,Albert Canterbury,1,42,1.0,1.0,0.0,1.0,2019.0,344.0,17.0,783.0,320.0,218.0,2.0,1.0,550.0,168.0,389.0,127.0,0.0578932749033608,2013.0,1,38.726271226501126,-9.15720616559564,4794.0,0.4211514392991239,0.0717563621193158,0.0002085940759282,0.1633291614518147,0.0667501042970379,0.0454735085523571,0.0004171881518564,0.114726741760534,0.0350438047559449,0.0811430955360867,4794.0,11.0,1,Vegetarians
46097,Patrick Sullivan,1,38,1.0,1.0,0.0,1.0,2725.0,444.0,17.0,754.0,313.0,116.0,1.0,0.0,572.0,146.0,718.0,283.0,0.2149573788714042,2006.0,0,38.72169706179655,-9.15722848298746,5789.0,0.4707203316634997,0.0766971843150803,0.0,0.1302470202107445,0.0540680601140093,0.0200380031093453,0.000172741406115,0.0988080842978061,0.0252202452927966,0.1240283295906028,5789.0,18.0,0,Vegetarians
47119,Noel Paar,1,56,1.0,0.0,0.0,2.0,3331.0,626.0,10.0,914.0,323.0,139.0,0.0,1.0,579.0,149.0,447.0,224.0,0.1060155888178437,2008.0,0,38.72086559622535,-9.1769674366849,6509.0,0.5117529574435398,0.0961745275772008,0.0001536334306345,0.1404209555999385,0.0496235980949454,0.0213550468581963,0.0,0.088953756337379,0.0228913811645414,0.0686741434936242,3254.5,16.0,0,Vegetarians
45520,Malcolm Oakley,1,45,1.0,0.0,0.0,1.0,2968.0,787.0,6.0,692.0,391.0,92.0,1.0,2.0,272.0,154.0,431.0,234.0,0.2504173371466739,2014.0,0,38.78337333057987,-9.132013108894506,5790.0,0.5126079447322971,0.1359240069084628,0.0003454231433506,0.1195164075993091,0.0675302245250431,0.0158894645941278,0.0001727115716753,0.0469775474956822,0.0265975820379965,0.0744386873920552,5790.0,10.0,0,Vegetarians
4218,Melanie Sherrill,0,55,1.0,0.0,0.0,1.0,2986.0,370.0,17.0,1199.0,424.0,68.0,1.0,1.0,355.0,238.0,549.0,212.0,0.2499424086058065,2008.0,1,38.736066945609146,-9.125602351187656,6191.0,0.4823130350508803,0.0597641738006784,0.0001615247940558,0.1936682280730092,0.0684865126796963,0.0109836859958003,0.0001615247940558,0.05734130188984,0.0384429009853012,0.0886771119366822,6191.0,16.0,2,Vegetarians
14094,Joseph Doten,1,64,1.0,0.0,1.0,1.0,3209.0,108.0,17.0,1147.0,273.0,145.0,1.0,1.0,636.0,94.0,423.0,226.0,0.1098930789004643,2009.0,1,38.72906243328242,-9.151552783541382,6037.0,0.5315554083153884,0.0178896803047871,0.0001656451880072,0.1899950306443597,0.0452211363259897,0.0240185522610568,0.0001656451880072,0.1053503395726354,0.0155706476726851,0.0700679145270829,6037.0,15.0,1,Vegetarians
16179,James Quan,1,75,1.0,0.0,0.0,1.0,3391.0,534.0,15.0,800.0,384.0,83.0,0.0,0.0,575.0,344.0,350.0,167.0,0.1178180602534872,2009.0,1,38.74342623157001,-9.162268690207172,6461.0,0.5248413558272713,0.0826497446215756,0.0,0.1238198421297012,0.0594335242222566,0.0128463086209565,0.0,0.0889955115307228,0.0532425321157715,0.0541711809317443,6461.0,15.0,3,Vegetarians
27983,Nicole Zorra,0,27,1.0,1.0,1.0,1.0,2764.0,529.0,9.0,1077.0,386.0,114.0,1.0,1.0,987.0,118.0,597.0,174.0,0.2800736191695798,2020.0,0,38.76084633949224,-9.122043335786197,6574.0,0.4204441740188622,0.0804685123212655,0.0001521143900212,0.1638271980529358,0.0587161545482202,0.0173410404624277,0.0001521143900212,0.1501369029510191,0.0179494980225129,0.0908122908427137,6574.0,4.0,0,Vegetarians
45444,Kellie Stephen,0,84,1.0,0.0,0.0,1.0,3255.0,621.0,10.0,1031.0,366.0,163.0,0.0,2.0,709.0,289.0,523.0,216.0,0.3201680584083557,2005.0,0,38.77394548673404,-9.133167194265688,6959.0,0.4677396177611725,0.0892369593332375,0.0002873976145997,0.1481534703261963,0.0525937634717631,0.0234229055898836,0.0,0.1018824543756286,0.0415289553096709,0.0751544762178473,6959.0,19.0,0,Vegetarians
7623,Dawn Cohen,0,65,1.0,1.0,1.0,1.0,1913.0,120.0,18.0,674.0,82.0,182.0,0.0,1.0,258.0,169.0,675.0,161.0,0.3053375631298264,2007.0,1,38.7128257694886,-9.190594235005298,4074.0,0.4695630829651448,0.0294550810014727,0.0002454590083456,0.1654393716249386,0.0201276386843397,0.0446735395189003,0.0,0.0633284241531664,0.0414825724104074,0.1656848306332842,4074.0,17.0,1,Vegetarians
40101,Kevin Cagle,1,37,1.0,0.0,1.0,1.0,2300.0,1139.0,6.0,712.0,143.0,176.0,0.0,1.0,243.0,31.0,522.0,196.0,0.2969186615410354,2010.0,0,38.78449326883575,-9.145450746839868,5267.0,0.4366812227074236,0.2162521359407632,0.0001898614011771,0.1351813176381241,0.0271501803683311,0.0334156066071767,0.0,0.0461363204860451,0.0058857034364913,0.0991076514144674,5267.0,14.0,0,Vegetarians
22957,Charles Keller,1,67,1.0,1.0,0.0,2.0,3222.0,346.0,12.0,1044.0,361.0,38.0,0.0,0.0,588.0,209.0,663.0,253.0,0.463629792350219,2011.0,1,38.77529709377255,-9.125987350984463,6471.0,0.497913769123783,0.0534693246793385,0.0,0.1613351877607788,0.0557873589862463,0.0058723535774996,0.0,0.0908669448307834,0.0322979446762478,0.1024571163653222,3235.5,13.0,0,Vegetarians
23036,Eugene Stiles,1,68,1.0,0.0,1.0,1.0,2892.0,190.0,13.0,1192.0,343.0,29.0,0.0,1.0,563.0,316.0,640.0,199.0,0.2346053443631789,2010.0,1,38.7217690550445,-9.188684043068056,6166.0,0.4690236782354849,0.0308141420694129,0.0001621796951021,0.1933181965617904,0.0556276354200454,0.004703211157963,0.0,0.0913071683425235,0.0512487836522867,0.1037950048653908,6166.0,14.0,0,Vegetarians
44933,Diana Bannon,0,81,1.0,0.0,0.0,1.0,2973.0,694.0,6.0,794.0,343.0,33.0,0.0,0.0,414.0,358.0,446.0,193.0,0.1776487982782702,2006.0,0,38.777355730991445,-9.192049663731028,6055.0,0.4909991742361684,0.1146160198183319,0.0,0.1311312964492155,0.0566473988439306,0.0054500412881915,0.0,0.0683732452518579,0.0591246903385631,0.0736581337737407,6055.0,18.0,0,Vegetarians
25739,Lucille Cantu,0,64,1.0,0.0,1.0,1.0,2856.0,669.0,17.0,1432.0,190.0,81.0,0.0,1.0,413.0,226.0,480.0,233.0,0.2102295927912764,2008.0,0,38.74855044601253,-9.154311921251765,6348.0,0.4499054820415879,0.1053875236294896,0.0001575299306868,0.2255828607435412,0.0299306868304977,0.0127599243856332,0.0,0.065059861373661,0.0356017643352236,0.0756143667296786,6348.0,16.0,0,Vegetarians
44391,Mark Lairy,1,58,0.0,0.0,0.0,1.0,2443.0,196.0,15.0,825.0,380.0,70.0,1.0,1.0,354.0,102.0,411.0,82.0,0.1728315328521593,2009.0,0,38.70910047240926,-9.167469254823182,4783.0,0.5107673008572026,0.0409784653982856,0.0002090738030524,0.1724858875182939,0.0794480451599414,0.0146351662136734,0.0002090738030524,0.074012126280577,0.0213255279113527,0.0859293330545682,4783.0,15.0,0,Vegetarians
39079,Thomas Kasper,1,66,1.0,1.0,1.0,1.0,4786.0,129.0,11.0,823.0,454.0,278.0,0.0,0.0,730.0,182.0,459.0,206.0,0.3134486521245668,2005.0,0,38.709655186655,-9.13232160724909,7841.0,0.6103813289121286,0.0164519831654125,0.0,0.1049611019002678,0.0579007779619946,0.0354546613952302,0.0,0.0931003698507843,0.0232113250860859,0.0585384517280959,7841.0,19.0,0,Vegetarians
28363,Val Kaminski,1,49,1.0,0.0,0.0,1.0,2159.0,37.0,15.0,1149.0,369.0,56.0,1.0,0.0,630.0,428.0,533.0,218.0,0.0539402174693633,2001.0,0,38.72805175218312,-9.18249908399348,5362.0,0.4026482655725475,0.0069004102946661,0.0,0.2142857142857142,0.0688176053711301,0.010443864229765,0.0001864975755315,0.1174934725848564,0.0798209623274897,0.0994032077582991,5362.0,23.0,0,Vegetarians
671,Clarence Rustin,1,62,1.0,0.0,0.0,1.0,2547.0,55.0,14.0,622.0,327.0,145.0,2.0,1.0,658.0,163.0,413.0,125.0,0.1734631881447121,2010.0,1,38.77133342891671,-9.158001532529155,4933.0,0.5163186701804175,0.0111494019866207,0.0002027163997567,0.1260896006486924,0.066288262720454,0.0293938779647273,0.0004054327995134,0.1333873910399351,0.0330427731603486,0.0837218730995337,4933.0,14.0,2,Vegetarians
26021,William Woodson,1,74,1.0,0.0,1.0,1.0,3471.0,226.0,13.0,1295.0,226.0,61.0,1.0,2.0,297.0,279.0,485.0,67.0,0.2413155914564164,2008.0,0,38.7571420136114,-9.161938832837516,6343.0,0.5472174050134005,0.0356298281570234,0.0003153082137789,0.2041620684218824,0.0356298281570234,0.0096169005202585,0.0001576541068894,0.0468232697461768,0.0439854958221661,0.0764622418413999,6343.0,16.0,0,Vegetarians
5987,Janet Robeson,0,48,1.0,0.0,0.0,1.0,4129.0,158.0,19.0,879.0,158.0,41.0,2.0,0.0,326.0,361.0,488.0,239.0,0.2803616684952081,2008.0,1,38.725946391615246,-9.138445901269211,6542.0,0.6311525527361663,0.0241516355854478,0.0,0.1343625802506878,0.0241516355854478,0.0062671965759706,0.0003057169061449,0.0498318557016203,0.0551819015591562,0.074594925099358,6542.0,16.0,3,Vegetarians
45259,Shelley Call,0,43,1.0,0.0,0.0,1.0,3682.0,98.0,7.0,1037.0,246.0,59.0,0.0,1.0,479.0,301.0,395.0,182.0,0.3748425343679089,2019.0,0,38.75179807946959,-9.136018715463116,6298.0,0.5846300412829469,0.0155604953953636,0.0001587805652588,0.1646554461733883,0.0390600190536678,0.0093680533502699,0.0,0.0760558907589711,0.0477929501429025,0.0627183232772308,6298.0,5.0,0,Vegetarians
41183,Sheri Paredes,0,42,1.0,1.0,1.0,1.0,4561.0,248.0,8.0,1138.0,311.0,153.0,2.0,0.0,789.0,199.0,502.0,340.0,0.1956459309392119,2011.0,0,38.76271944246534,-9.154114312837804,7903.0,0.5771226116664557,0.0313804884221181,0.0,0.1439959509047197,0.0393521447551562,0.0193597368088067,0.000253068455017,0.0998355055042388,0.0251803112741996,0.0635201822092876,7903.0,13.0,0,Vegetarians
15871,Sarah Brown,0,64,1.0,0.0,1.0,1.0,3361.0,109.0,18.0,1032.0,467.0,175.0,2.0,0.0,608.0,402.0,425.0,368.0,0.2547561661868688,2014.0,1,38.767707532706495,-9.128057031774782,6581.0,0.510712657650813,0.0165628323962923,0.0,0.1568150736970065,0.0709618598997113,0.0265917033885427,0.0003039051815833,0.0923871752013371,0.0610849414982525,0.064579851086461,6581.0,10.0,1,Vegetarians
4177,Patricia Butler,0,54,1.0,0.0,0.0,1.0,3480.0,1413.0,17.0,764.0,300.0,4.0,1.0,0.0,250.0,407.0,525.0,230.0,0.2744172504082255,2006.0,1,38.78161570217416,-9.156135536748256,7144.0,0.4871220604703247,0.1977883538633818,0.0,0.1069428891377379,0.041993281075028,0.0005599104143337,0.0001399776035834,0.0349944008958566,0.0569708846584546,0.0734882418812989,7144.0,18.0,2,Vegetarians
8080,Jose Reed,1,52,1.0,0.0,1.0,2.0,3599.0,464.0,14.0,641.0,267.0,122.0,2.0,1.0,883.0,288.0,522.0,285.0,0.1406108753047852,2006.0,1,38.73842408418993,-9.180263316543114,6789.0,0.5301222565915451,0.0683458535866843,0.0001472970982471,0.0944174399764324,0.0393283252319929,0.017970245986154,0.0002945941964943,0.1300633377522463,0.0424215642951833,0.0768890852850198,3394.5,18.0,2,Vegetarians
35982,Jamie Ollie,0,74,1.0,0.0,0.0,1.0,3144.0,1019.0,23.0,1168.0,482.0,77.0,0.0,2.0,709.0,128.0,490.0,6.0,0.1509289259008945,2014.0,0,38.75583866392147,-9.139757268910971,7219.0,0.4355173846793184,0.1411552846654661,0.0002770466823659,0.1617952625017315,0.0667682504502008,0.0106662972710901,0.0,0.0982130488987394,0.0177309876714226,0.0678764371796647,7219.0,10.0,0,Vegetarians
12573,Richard Ochoa,1,60,1.0,1.0,0.0,1.0,2602.0,76.0,17.0,811.0,299.0,38.0,0.0,1.0,414.0,221.0,599.0,169.0,0.1877329244858302,2004.0,1,38.75138493078168,-9.128870401686768,5061.0,0.5141276427583481,0.0150167950997826,0.0001975894092076,0.1602450108674175,0.0590792333530922,0.0075083975498913,0.0,0.0818020154119739,0.0436672594348942,0.1183560561153922,5061.0,20.0,3,Vegetarians
15235,Kathleen Cosme,0,60,1.0,0.0,1.0,2.0,2696.0,7.0,21.0,1049.0,222.0,106.0,2.0,2.0,592.0,197.0,507.0,406.0,0.0737505940129682,2007.0,1,38.75427211256908,-9.128561537709004,5380.0,0.5011152416356878,0.0013011152416356,0.0003717472118959,0.1949814126394052,0.041263940520446,0.0197026022304832,0.0003717472118959,0.1100371747211896,0.0366171003717472,0.0942379182156133,2690.0,17.0,3,Vegetarians
7269,Gary Wilson,1,55,1.0,0.0,0.0,1.0,2302.0,371.0,7.0,1040.2,421.0,3.0,1.0,1.0,899.0,210.0,464.0,276.0,0.1145547301767912,2010.0,1,38.76341446481487,-9.14933460936062,5712.2,0.4029970939392878,0.0649487062777914,0.0001750638983228,0.1821014670354679,0.0737019011939357,0.0005251916949686,0.0001750638983228,0.1573824445922761,0.0367634186478064,0.0812296488218199,5712.2,14.0,1,Vegetarians
27263,Noah Cody,1,81,1.0,1.0,1.0,1.0,3190.0,950.0,17.0,975.0,160.0,191.0,1.0,1.0,667.0,14.0,643.0,180.0,0.0221250363057484,2009.0,0,38.77738854216364,-9.180615026052369,6792.0,0.4696702002355712,0.1398704358068315,0.0001472320376914,0.1435512367491166,0.0235571260306242,0.0281213191990577,0.0001472320376914,0.0982037691401649,0.0020612485276796,0.0946702002355712,6792.0,15.0,0,Vegetarians
887,Georgia Montoya,0,57,1.0,0.0,0.0,2.0,4517.0,200.0,17.0,1037.0,321.0,234.0,0.0,2.0,298.0,97.0,399.0,96.0,0.187662426825359,2008.0,1,38.75851536836001,-9.165306641177354,7105.0,0.6357494722026742,0.028149190710767,0.0002814919071076,0.1459535538353272,0.0451794510907811,0.0329345531315974,0.0,0.0419422941590429,0.013652357494722,0.0561576354679803,3552.5,16.0,2,Vegetarians
27533,Geneva Duncan,0,27,1.0,0.0,1.0,1.0,3463.0,77.0,23.0,985.0,204.0,102.0,2.0,0.0,169.0,52.0,528.0,273.0,0.324060062860828,2020.0,0,38.76460820583082,-9.193601446621436,5582.0,0.6203869580795414,0.0137943389466141,0.0,0.1764600501612325,0.036546040845575,0.0182730204227875,0.0003582945180938,0.0302758867789322,0.0093156574704407,0.0945897527767825,5582.0,4.0,0,Vegetarians
12934,Danny Nobles,1,58,1.0,0.0,0.0,2.0,3362.0,205.0,11.0,1277.0,151.0,305.0,1.0,1.0,724.0,236.0,568.0,127.0,0.2056517241936826,2009.0,1,38.756131144326005,-9.195424812412895,6830.0,0.4922401171303074,0.0300146412884333,0.0001464128843338,0.1869692532942899,0.022108345534407,0.0446559297218155,0.0001464128843338,0.1060029282576866,0.0345534407027818,0.0831625183016105,3415.0,15.0,1,Vegetarians
39297,Melody Gardea,0,24,1.0,1.0,0.0,1.0,3325.0,195.0,13.0,760.0,372.0,52.0,2.0,1.0,576.0,299.0,665.0,104.0,0.2523350560193616,2023.0,0,38.76656305122205,-9.17346105874418,6247.0,0.5322554826316632,0.0312149831919321,0.0001600768368817,0.1216583960300944,0.0595485833199935,0.0083239955178485,0.0003201536737634,0.092204258043861,0.0478629742276292,0.1064510965263326,6247.0,1.0,0,Vegetarians
40473,Zelma Atwell,0,78,1.0,0.0,1.0,1.0,3163.0,98.0,18.0,1457.0,276.0,286.0,2.0,1.0,707.0,168.0,393.0,272.0,0.155541743934638,2008.0,0,38.75119321778675,-9.12718182942998,6551.0,0.4828270493054495,0.0149595481605861,0.0001526484506182,0.2224087925507556,0.0421309723706304,0.0436574568768127,0.0003052969012364,0.1079224545870859,0.025644939703862,0.0599908410929629,6551.0,16.0,0,Vegetarians
10305,Gary Mooberry,1,45,1.0,0.0,0.0,1.0,2420.0,772.0,8.0,1041.0,222.0,59.0,0.0,0.0,289.0,265.0,559.0,379.0,0.132205385577082,2009.0,1,38.77359028583596,-9.14647811240354,5627.0,0.4300693086902434,0.137195663763995,0.0,0.1850008885729518,0.0394526390616669,0.0104851608317042,0.0,0.0513595166163142,0.0470943664474853,0.0993424560156388,5627.0,15.0,1,Vegetarians
19897,Linda Balke,0,38,1.0,0.0,1.0,1.0,3553.0,103.0,11.0,1360.0,425.0,27.0,1.0,1.0,1005.0,262.0,554.0,322.0,0.2150552372571636,2010.0,1,38.77918542630299,-9.16945224067798,7291.0,0.4873131257714991,0.014127005897682,0.0001371553970648,0.1865313400082293,0.0582910437525716,0.0037031957207516,0.0001371553970648,0.1378411740501988,0.0359347140309971,0.0759840899739404,7291.0,14.0,0,Vegetarians
19123,Houston Giardina,1,74,1.0,0.0,0.0,1.0,3103.0,149.0,24.0,1096.0,173.0,317.0,0.0,1.0,743.0,48.0,489.0,197.0,0.3405998620176216,2009.0,1,38.75823907159545,-9.12126578644641,6119.0,0.5071090047393365,0.0243503840496813,0.0001634253963065,0.1791142343520183,0.0282725935610393,0.0518058506291877,0.0,0.1214250694557934,0.0078444190227161,0.0799150187939205,6119.0,15.0,1,Vegetarians
2796,Nicholas Kilmer,1,45,1.0,0.0,0.0,1.0,3189.0,595.0,8.0,1090.0,217.0,145.0,1.0,2.0,678.0,278.0,512.0,361.0,0.1352891915704574,2012.0,1,38.72667134054826,-9.19535435738718,6707.0,0.4754733860146116,0.0887132846280006,0.0002981959147159,0.1625167735202027,0.0323542567466825,0.0216192038169077,0.0001490979573579,0.1010884150887132,0.0414492321455196,0.0763381541672879,6707.0,12.0,1,Vegetarians
49097,Jeffrey Davis,1,43,1.0,0.0,0.0,1.0,3488.0,205.0,8.0,1284.0,189.0,46.0,1.0,1.0,683.0,205.0,385.0,108.0,0.3735456968699127,2013.0,0,38.72382695330645,-9.189373001405368,6487.0,0.53769076614768,0.0316016648681979,0.0001541544627716,0.1979343301988592,0.0291351934638507,0.007091105287498,0.0001541544627716,0.1052874980730692,0.0316016648681979,0.0593494681671034,6487.0,11.0,0,Vegetarians
19397,Lee Norman,1,58,1.0,0.0,1.0,1.0,2518.0,232.0,13.0,1102.0,173.0,40.0,0.0,0.0,100.0,176.0,434.0,100.0,0.2449403853386115,2007.0,1,38.76509231255455,-9.143307094469517,4775.0,0.5273298429319372,0.0485863874345549,0.0,0.2307853403141361,0.0362303664921465,0.0083769633507853,0.0,0.0209424083769633,0.0368586387434555,0.0908900523560209,4775.0,17.0,1,Vegetarians
41927,Delores Pleiman,0,73,1.0,0.0,0.0,2.0,3506.0,215.0,16.0,1185.0,158.0,112.0,0.0,0.0,407.0,232.0,653.0,215.0,0.2182934966787396,2010.0,0,38.748716030944905,-9.16100329604454,6468.0,0.5420531849103277,0.0332405689548546,0.0,0.1832096474953617,0.0244279529993815,0.0173160173160173,0.0,0.0629251700680272,0.0358688930117501,0.1009585652442795,3234.0,14.0,0,Vegetarians
35654,Laura Edwards,0,60,1.0,0.0,1.0,2.0,3457.0,227.0,24.0,1031.0,394.0,100.0,1.0,1.0,526.0,166.0,503.0,60.0,0.3139228324629985,2015.0,0,38.71802481812633,-9.134988199547584,6406.0,0.539650327817671,0.035435529191383,0.0001561036528254,0.1609428660630658,0.0615048392132375,0.0156103652825476,0.0001561036528254,0.0821105213862004,0.025913206369029,0.0785201373712144,3203.0,9.0,0,Vegetarians
14451,Virginia Hurt,0,57,1.0,0.0,1.0,1.0,2586.0,117.0,8.0,563.0,295.0,6.0,0.0,1.0,453.0,255.0,514.0,128.0,0.1654428711240416,2012.0,1,38.71978121343705,-9.127621915104957,4790.0,0.539874739039666,0.0244258872651357,0.0002087682672233,0.1175365344467641,0.0615866388308977,0.0012526096033402,0.0,0.094572025052192,0.0532359081419624,0.1073068893528183,4790.0,12.0,1,Vegetarians
21785,Shirley Baxter,0,51,1.0,0.0,1.0,1.0,3242.0,1012.0,12.0,918.0,310.0,41.0,0.0,1.0,313.0,228.0,522.0,190.0,0.1145751440503313,2006.0,1,38.71389548135626,-9.165009921075557,6587.0,0.4921815697586154,0.1536359495976924,0.0001518141794443,0.1393654167299226,0.0470623956277516,0.0062243813572187,0.0,0.0475178381660847,0.0346136329133141,0.0792470016699559,6587.0,18.0,0,Vegetarians
25376,John Harrison,1,75,1.0,0.0,0.0,1.0,3501.0,313.0,21.0,721.0,246.0,83.0,0.0,0.0,492.0,218.0,467.0,240.0,0.1671381701568044,2010.0,0,38.767158919233545,-9.16598584637371,6041.0,0.5795398112895216,0.0518126138056613,0.0,0.1193511008111239,0.0407217348121172,0.0137394471114053,0.0,0.0814434696242344,0.0360867406058599,0.0773050819400761,6041.0,14.0,0,Vegetarians
1433,Clifford Isom,1,44,1.0,1.0,1.0,1.0,3575.0,156.0,7.0,1070.0,323.0,46.0,0.0,1.0,200.0,201.0,609.0,280.0,0.1735087069072087,2011.0,1,38.77092882138754,-9.139538743423456,6181.0,0.5783853745348649,0.0252386345251577,0.000161786118751,0.1731111470635819,0.0522569163565766,0.0074421614625465,0.0,0.0323572237502022,0.0325190098689532,0.0985277463193658,6181.0,13.0,3,Vegetarians
32404,Donna Clark,0,40,1.0,0.0,1.0,1.0,7451.0,562.0,10.0,887.0,260.0,20.0,2.0,0.0,233.0,179.0,387.0,145.0,0.1200674342794957,2013.0,0,38.731428973658126,-9.183888987824306,9981.0,0.7465183849313696,0.0563069832682096,0.0,0.0888688508165514,0.0260494940386734,0.0020038072337441,0.0002003807233744,0.0233443542731189,0.0179340747420098,0.0387736699729486,9981.0,11.0,0,Vegetarians
29630,Tyrone Chauez,1,43,1.0,0.0,0.0,1.0,3773.0,108.0,10.8,1010.0,459.0,197.0,1.0,1.0,488.0,120.0,436.0,183.0,0.4212228565570486,2006.0,0,38.77395252216143,-9.16217336553558,6593.0,0.5722736235401183,0.0163810101622933,0.0001516760200212,0.153192780221447,0.0696192931897467,0.0298801759441832,0.0001516760200212,0.0740178977703625,0.0182011224025481,0.0661307447292583,6593.0,18.0,0,Vegetarians
15950,Riley Conant,1,83,1.0,0.0,0.0,1.0,3290.0,319.0,13.0,684.0,429.0,174.0,1.0,1.0,943.0,148.0,318.0,233.0,0.3395650006419267,2011.0,1,38.70967862562004,-9.160837536985536,6307.0,0.5216426193118757,0.0505787220548596,0.0001585539876327,0.1084509275408276,0.0680196606944664,0.0275883938481052,0.0001585539876327,0.14951641033772,0.0234659901696527,0.0504201680672268,6307.0,13.0,2,Vegetarians
25522,Agnes Vosmus,0,60,1.0,1.0,0.0,1.0,2725.0,280.0,9.0,849.0,266.0,100.0,1.0,3.0,533.0,147.0,612.0,153.0,0.185433110779038,2012.0,0,38.76048562668433,-9.159947876077323,5516.0,0.494017403915881,0.0507614213197969,0.0005438723712835,0.1539158810732414,0.0482233502538071,0.0181290790427846,0.0001812907904278,0.096627991298042,0.0266497461928934,0.1109499637418419,5516.0,12.0,0,Vegetarians
5831,Erica Lizarraga,0,80,1.0,1.0,1.0,1.0,3135.0,207.0,13.0,983.0,261.0,100.0,0.0,0.0,518.0,195.0,554.0,299.0,0.3461056604859717,2012.0,1,38.78357572521183,-9.152158918829748,5953.0,0.5266252309759785,0.0347723836720981,0.0,0.1651268268100117,0.0438434402822106,0.0167982529816899,0.0,0.0870149504451537,0.0327565933142953,0.093062321518562,5953.0,12.0,1,Vegetarians
7430,Leigh Cashen,0,44,1.0,0.0,1.0,1.0,3256.0,239.0,17.0,695.0,368.0,194.0,1.0,1.0,369.0,118.0,556.0,312.0,0.2243081423007855,2011.0,1,38.714379907136895,-9.194488416190769,5797.0,0.5616698292220114,0.0412282214938761,0.0001725030188028,0.1198895980679661,0.063481110919441,0.0334655856477488,0.0001725030188028,0.0636536139382439,0.0203553562187338,0.0959116784543729,5797.0,13.0,2,Vegetarians
37258,Dorothy Seeley,0,43,1.0,1.0,0.0,1.0,2977.0,657.0,7.0,949.0,136.0,133.0,0.0,0.0,554.0,277.0,507.0,204.0,0.2466258182215218,2008.0,0,38.78189966752103,-9.144411539762928,6190.0,0.4809369951534733,0.1061389337641357,0.0,0.1533117932148626,0.0219709208400646,0.0214862681744749,0.0,0.0894991922455573,0.0447495961227786,0.0819063004846526,6190.0,16.0,0,Vegetarians
48961,Pamela Rooks,0,55,1.0,0.0,1.0,2.0,3173.0,130.0,16.0,1021.0,251.0,201.0,0.0,2.0,344.0,379.0,543.0,299.0,0.21988241634398,2014.0,0,38.71031949006543,-9.138617127234053,6044.0,0.5249834546657842,0.0215089344804765,0.000330906684315,0.1689278623428193,0.0415287888815354,0.0332561217736598,0.0,0.0569159497021839,0.0627068166776968,0.0898411647915287,3022.0,10.0,0,Vegetarians
1800,Vivian Robinson,0,41,1.0,1.0,1.0,1.0,2601.0,125.0,11.0,1204.0,359.0,14.0,1.0,0.0,375.0,144.0,576.0,240.0,0.2805136279189514,2005.0,1,38.76973793259466,-9.142837497418173,5399.0,0.4817558807186516,0.0231524356362289,0.0,0.223004260048157,0.0664937951472494,0.0025930727912576,0.0001852194850898,0.0694573069086867,0.0266716058529357,0.1066864234117429,5399.0,19.0,2,Vegetarians
32818,Michael Aran,1,52,1.0,1.0,0.0,1.0,3293.0,550.0,7.0,880.0,368.0,96.0,1.0,0.0,614.0,342.0,560.0,119.0,0.3619193415343726,2009.0,0,38.750653080349785,-9.131314589096608,6704.0,0.4911992840095465,0.0820405727923627,0.0,0.1312649164677804,0.0548926014319809,0.0143198090692124,0.0001491646778042,0.0915871121718377,0.0510143198090692,0.0835322195704057,6704.0,15.0,0,Vegetarians
6126,Ann Neal,0,37,1.0,0.0,1.0,2.0,3231.0,893.0,16.0,1297.0,533.0,130.0,0.0,0.0,627.0,157.0,645.0,316.0,0.1994476933026266,2007.0,1,38.71290251970862,-9.121879131488116,7513.0,0.4300545720750698,0.1188606415546386,0.0,0.1726341008917875,0.0709436975908425,0.0173033408758152,0.0,0.0834553440702781,0.0208971116730999,0.0858511912684679,3756.5,17.0,1,Vegetarians
28020,Caitlin Davis,0,40,1.0,1.0,0.0,1.0,3681.0,54.0,14.0,807.0,389.0,65.0,1.0,1.0,802.0,176.0,400.0,187.0,0.2891562524969577,2007.0,0,38.72918028390976,-9.123030522562798,6376.0,0.5773212045169385,0.0084692597239648,0.0001568381430363,0.1265683814303638,0.0610100376411543,0.0101944792973651,0.0001568381430363,0.1257841907151819,0.027603513174404,0.0627352572145545,6376.0,17.0,0,Vegetarians
41032,Naomi Brunner,0,53,1.0,1.0,0.0,2.0,3174.0,419.0,9.0,1130.0,171.0,73.0,1.0,1.0,538.0,295.0,433.0,84.0,0.2268148736865237,2012.0,0,38.74167395298753,-9.139583424420058,6235.0,0.5090617481956696,0.0672012830793905,0.0001603849238171,0.1812349639133921,0.0274258219727345,0.0117080994386527,0.0001603849238171,0.0862870890136327,0.0473135525260625,0.0694466720128307,3117.5,12.0,0,Vegetarians
35868,Stewart Oddo,1,83,1.0,0.0,1.0,1.0,2980.0,157.0,13.6,733.0,211.0,140.0,1.0,2.0,860.0,161.0,529.0,142.0,0.1133783427169594,2008.0,0,38.73991037056873,-9.170035981878009,5774.0,0.516106685140284,0.0271908555594042,0.0003463803255975,0.1269483893314859,0.0365431243505368,0.0242466227918254,0.0001731901627987,0.1489435400069276,0.0278836162105992,0.0916175961205403,5774.0,16.0,0,Vegetarians
31185,Virginia Stevens,0,54,1.0,1.0,1.0,1.0,3396.0,360.0,16.0,634.0,168.0,204.0,1.0,0.0,468.0,133.0,544.0,295.0,0.134340248993856,2004.0,0,38.7872092154016,-9.136073716010271,5908.0,0.5748138117806364,0.0609343263371699,0.0,0.1073121191604603,0.0284360189573459,0.0345294515910629,0.0001692620176032,0.0792146242383209,0.0225118483412322,0.0920785375761679,5908.0,20.0,0,Vegetarians
24211,Julie Godfrey,0,28,1.0,0.0,0.0,1.0,2082.0,453.0,14.2,1158.0,346.0,9.0,1.0,0.0,655.0,219.0,379.0,153.0,0.2713149092153133,2019.0,1,38.724371868290376,-9.151816026884966,5302.0,0.3926820067898906,0.0854394568087514,0.0,0.2184081478687287,0.0652583930592229,0.0016974726518294,0.0001886080724254,0.1235382874387023,0.0413051678611844,0.0714824594492644,5302.0,5.0,0,Vegetarians
6323,David Smith,1,57,1.0,0.0,0.0,2.0,2304.0,450.0,17.0,937.0,336.0,261.0,0.0,2.0,450.0,366.0,616.0,165.0,0.0919190606608288,2017.0,1,38.72170601299348,-9.17391406775144,5722.0,0.4026564138413142,0.0786438308283816,0.000349528137015,0.1637539321915414,0.0587207270185249,0.0456134218804613,0.0,0.0786438308283816,0.0639636490737504,0.1076546662006291,2861.0,7.0,3,Vegetarians
6287,Anthony Ayers,1,82,1.0,0.0,1.0,1.0,1997.0,571.0,13.0,1356.0,311.0,112.0,2.0,2.0,783.0,281.0,585.0,123.0,0.2668218574283295,2014.0,1,38.77488311794662,-9.188669636249356,6000.0,0.3328333333333333,0.0951666666666666,0.0003333333333333,0.226,0.0518333333333333,0.0186666666666666,0.0003333333333333,0.1305,0.0468333333333333,0.0975,6000.0,10.0,3,Vegetarians
20423,Isaiah Turner,1,52,1.0,0.2,0.0,1.0,2404.0,504.0,15.0,897.0,388.0,136.0,0.0,1.0,566.0,269.0,529.0,356.0,0.3717360544801282,2011.0,1,38.73013584322817,-9.142275329474876,5694.0,0.4221988057604496,0.0885142255005268,0.0001756234632946,0.1575342465753424,0.0681419037583421,0.0238847910080786,0.0,0.099402880224798,0.0472427116262732,0.0929048120828942,5694.0,13.0,0,Vegetarians
15044,Leon Nesby,1,80,1.0,1.0,0.0,1.0,3200.0,420.0,11.0,1107.0,438.0,303.0,1.0,0.0,90.0,102.0,689.0,82.0,0.2356049469954193,2013.0,1,38.78110811836827,-9.136363936758064,6350.0,0.5039370078740157,0.0661417322834645,0.0,0.1743307086614173,0.0689763779527559,0.0477165354330708,0.0001574803149606,0.0141732283464566,0.0160629921259842,0.108503937007874,6350.0,11.0,3,Vegetarians
8243,Barbara Hilliard,0,62,1.0,0.0,1.0,2.0,3479.0,134.0,21.0,1211.0,314.0,26.0,1.0,0.0,243.0,194.0,485.0,22.0,0.1565743943769442,2012.0,1,38.70881369270242,-9.125791263139812,6087.0,0.5715459175291605,0.0220141284705109,0.0,0.1989485789387218,0.0515853458189584,0.0042713980614424,0.0001642845408247,0.0399211434204041,0.0318712009199934,0.0796780022999835,3043.5,12.0,2,Vegetarians
6756,Kristy Landers,0,78,1.0,0.0,0.0,1.0,3882.0,200.0,22.0,1311.0,409.0,149.0,1.0,2.0,496.0,305.0,403.0,309.0,0.3528809831975605,2008.0,1,38.78693053520515,-9.166487849904328,7158.0,0.5423302598491199,0.0279407655769768,0.0002794076557697,0.183151718357083,0.0571388656049175,0.0208158703548477,0.0001397038278848,0.0692930986309024,0.0426096675048896,0.0563006426376082,7158.0,16.0,2,Vegetarians
8850,Geraldine Andrade,0,59,1.0,1.0,0.0,1.0,2976.0,295.0,14.0,1164.0,381.0,25.0,1.0,1.0,213.0,236.0,431.0,267.0,0.2686866855747349,2009.0,1,38.70954921354723,-9.124509291525742,5723.0,0.5200069893412546,0.0515463917525773,0.0001747335313646,0.2033898305084746,0.0665734754499388,0.0043683382841167,0.0001747335313646,0.0372182421806744,0.0412371134020618,0.0753101520181722,5723.0,15.0,3,Vegetarians
7803,Sara Bruce,0,48,1.0,0.0,1.0,1.0,3184.0,458.0,9.0,986.0,330.0,155.0,3.0,0.0,725.0,267.0,461.0,65.0,0.4056767177023133,2013.0,1,38.72777636799229,-9.1420770869461,6569.0,0.4847008677119805,0.0697214187852032,0.0,0.150098949611813,0.0502359567666311,0.0235956766631146,0.0004566905160602,0.1103668747145684,0.0406454559293652,0.0701781093012635,6569.0,11.0,1,Vegetarians
4871,Lisa Calderon,0,70,1.0,0.0,1.0,1.0,2894.0,819.0,17.0,1021.0,332.0,120.0,1.0,1.0,293.0,225.0,484.0,55.0,0.3223652971390905,2006.0,1,38.7751125571967,-9.189967861917197,6190.0,0.4675282714054927,0.1323101777059774,0.0001615508885298,0.1649434571890145,0.0536348949919224,0.0193861066235864,0.0001615508885298,0.0473344103392568,0.0363489499192245,0.0781906300484652,6190.0,18.0,2,Vegetarians
33437,Katie Smith,0,43,1.0,0.0,0.0,1.0,3807.0,67.0,20.0,594.0,291.0,39.0,1.0,1.0,100.0,181.0,526.0,133.0,0.1764583804942774,2007.0,0,38.7677954558335,-9.1280046576125,5607.0,0.6789727126805778,0.0119493490280007,0.0001783484929552,0.1059390048154093,0.0518994114499732,0.0069555912252541,0.0001783484929552,0.0178348492955234,0.0322810772248974,0.0938113072944533,5607.0,17.0,0,Vegetarians
5248,Thomas Spencer,1,50,1.0,0.0,1.0,1.0,2615.0,77.0,7.0,1122.0,343.0,140.0,1.0,0.0,575.0,20.0,530.0,174.0,0.1623216696138217,2017.0,1,38.73802771901062,-9.1241480584281,5423.0,0.4822054213534943,0.0141987829614604,0.0,0.2068965517241379,0.063249124101051,0.0258159690208371,0.0001843997787202,0.1060298727641526,0.0036879955744053,0.0977318827217407,5423.0,7.0,2,Vegetarians
8007,Amber Arehart,0,81,1.0,0.0,1.0,1.0,3505.0,908.0,13.0,1151.0,232.0,113.0,4.0,1.0,727.0,140.0,496.0,303.0,0.2917225718180955,2012.0,1,38.77578698371059,-9.150249333591324,7277.0,0.4816545279648206,0.1247766936924556,0.0001374192661811,0.1581695753744675,0.0318812697540195,0.0155283770784664,0.0005496770647244,0.0999038065136732,0.0192386972653566,0.0681599560258348,7277.0,12.0,2,Vegetarians
31270,William Rountree,1,50,1.0,0.0,0.0,2.0,2102.0,279.0,9.0,828.0,291.0,153.0,2.0,1.0,447.0,209.0,473.0,171.0,0.0459553817695957,2010.0,0,38.72194232718375,-9.182863073764189,4785.0,0.4392894461859979,0.0583072100313479,0.0002089864158829,0.1730407523510971,0.0608150470219435,0.031974921630094,0.0004179728317659,0.0934169278996865,0.0436781609195402,0.0988505747126436,2392.5,14.0,0,Vegetarians
5508,Simone Martin,0,62,1.0,1.0,0.0,1.0,2899.0,5.0,17.0,736.0,274.0,47.0,2.0,0.0,334.0,189.0,569.0,240.0,0.1974476240724468,2008.0,1,38.72120390104197,-9.144704913234362,5055.0,0.5734915924826904,0.0009891196834817,0.0,0.1455984174085064,0.0542037586547972,0.0092977250247279,0.0003956478733926,0.0660731948565776,0.0373887240356083,0.1125618199802176,5055.0,16.0,2,Vegetarians
34504,Patricia Rahman,0,52,1.0,1.0,0.0,1.0,3254.0,501.0,22.0,731.0,325.0,127.0,0.0,1.0,641.0,215.0,594.0,124.0,0.2895329325793534,2004.0,0,38.76373435677971,-9.17415493659652,6389.0,0.5093128815151041,0.078416027547347,0.0001565190170605,0.1144154014712787,0.0508686805446861,0.0198779151666927,0.0,0.1003286899358272,0.0336515886680231,0.0929722961339802,6389.0,20.0,0,Vegetarians
35398,Lacey Pray,0,79,1.0,0.0,0.0,1.0,2164.0,569.0,10.0,1175.0,256.0,452.0,0.0,0.0,593.0,198.0,653.0,48.0,0.2142745071820728,2013.0,0,38.75510189749882,-9.176705911041752,6060.0,0.3570957095709571,0.0938943894389438,0.0,0.1938943894389438,0.0422442244224422,0.0745874587458746,0.0,0.0978547854785478,0.0326732673267326,0.1077557755775577,6060.0,11.0,0,Vegetarians
22384,Norma Martin,0,70,1.0,1.0,1.0,1.0,2463.0,59.0,13.2,904.0,192.0,117.0,1.0,1.0,756.0,165.0,518.0,173.0,0.0640415383553101,2008.0,1,38.711010500892485,-9.139307349357257,5176.0,0.4758500772797527,0.0113987635239567,0.0001931993817619,0.1746522411128284,0.0370942812982998,0.0226043276661514,0.0001931993817619,0.1460587326120556,0.0318778979907264,0.1000772797527047,5176.0,16.0,0,Vegetarians
47785,Margaret Thomason,0,56,1.0,1.0,0.0,1.0,2261.0,32.0,10.0,1091.0,165.0,261.0,0.0,0.0,5.0,192.0,326.0,172.0,0.0874035856410915,2008.0,0,38.74117836464914,-9.1550263621684,4333.0,0.5218093699515347,0.0073851834756519,0.0,0.2517885991230094,0.0380798522963304,0.0602354027232864,0.0,0.0011539349180706,0.0443111008539118,0.0752365566582044,4333.0,16.0,0,Vegetarians
31587,Wendy Booth,0,55,1.0,0.0,1.0,1.0,1987.0,535.0,13.0,1232.0,240.0,61.0,1.0,1.0,601.0,133.0,651.0,243.0,0.1204633607548814,2013.0,0,38.76710288560596,-9.191135408034953,5442.0,0.3651231165012863,0.0983094450569643,0.000183755972069,0.2263873575891216,0.0441014332965821,0.0112091142962146,0.000183755972069,0.1104373392135244,0.0244395442851892,0.119625137816979,5442.0,11.0,0,Vegetarians
27632,Evelyn Welch,0,30,1.0,0.0,0.0,1.0,2916.0,510.0,17.0,1133.0,364.0,239.0,0.0,2.0,854.0,77.0,441.0,269.0,0.1312083829052979,2013.0,0,38.74439066670342,-9.152520093136294,6536.0,0.4461444308445532,0.0780293757649938,0.0003059975520195,0.1733476132190942,0.0556915544675642,0.0365667074663402,0.0,0.1306609547123623,0.0117809057527539,0.0674724602203182,6536.0,11.0,0,Vegetarians
3197,Kathleen Simmons,0,36,1.0,1.0,1.0,2.0,3179.0,385.0,15.0,1299.0,196.0,79.0,0.0,1.0,492.0,26.0,485.0,187.0,0.2922257069090709,2012.0,1,38.77149233490083,-9.13263453298969,6142.0,0.5175838489091501,0.0626831650928036,0.0001628134158254,0.2114946271572777,0.0319114295017909,0.0128622598502116,0.0,0.0801042005861283,0.004233148811462,0.07896450667535,3071.0,12.0,3,Vegetarians
49830,Dorothy Lovejoy,0,29,1.0,0.0,1.0,1.0,2135.0,422.0,12.0,796.0,312.0,251.0,0.0,1.0,537.0,113.0,520.0,280.0,0.1726963667277494,2013.0,0,38.773774373947376,-9.164703350588937,5087.0,0.4196972675447218,0.0829565559268724,0.0001965795164143,0.1564772950658541,0.0613328091212895,0.0493414586200118,0.0,0.1055632003145272,0.022213485354826,0.1022213485354826,5087.0,11.0,0,Vegetarians
21481,Eugene Krenz,1,83,2.0,1.0,1.0,1.0,2728.0,31.0,15.0,960.0,197.0,187.0,0.0,1.0,728.0,271.0,612.0,58.0,0.1158023736294643,2011.0,1,38.77145266183663,-9.14975961576053,5715.0,0.4773403324584427,0.005424321959755,0.000174978127734,0.1679790026246719,0.0344706911636045,0.0327209098862642,0.0,0.1273840769903762,0.047419072615923,0.1070866141732283,5715.0,13.0,0,Vegetarians
3540,Richard Szydlowski,1,64,1.0,1.0,1.0,1.0,3263.0,592.0,12.0,1139.0,472.0,86.0,0.0,0.0,552.0,440.0,546.0,426.0,0.4560541515535825,2011.0,1,38.76508064794927,-9.134931787331336,7090.0,0.4602256699576869,0.0834978843441466,0.0,0.1606488011283497,0.0665726375176304,0.0121297602256699,0.0,0.0778561354019746,0.0620592383638928,0.0770098730606488,7090.0,13.0,2,Vegetarians
7120,Edward Haines,1,62,1.0,1.0,1.0,1.0,3093.0,163.0,15.0,491.0,370.0,194.0,0.0,1.0,386.0,243.0,546.0,225.0,0.1040555671896003,2001.0,1,38.78113467544033,-9.172810590996608,5487.0,0.5636960087479497,0.0297065791871696,0.0001822489520685,0.089484235465646,0.0674321122653544,0.0353562967012939,0.0,0.0703480954984508,0.0442864953526517,0.0995079278294149,5487.0,23.0,1,Vegetarians
8822,Vera Levenhagen,0,56,1.0,0.0,0.0,1.0,3321.0,69.0,13.0,918.0,251.0,153.0,2.0,0.0,757.0,312.0,354.0,294.0,0.2876761050944408,2011.0,1,38.78060397308963,-9.155730774086956,6137.0,0.5411438813752648,0.0112432784748248,0.0,0.149584487534626,0.0408994622779859,0.0249307479224376,0.000325892129705,0.1233501710933681,0.0508391722339905,0.0576829069577969,6137.0,13.0,2,Vegetarians
24657,Eunice Poplar,0,80,1.0,0.0,1.0,1.0,2361.0,421.0,13.0,1212.0,251.0,101.0,0.0,2.0,269.0,281.0,605.0,242.0,0.0648109035291631,2012.0,1,38.78583172159299,-9.182769969536135,5503.0,0.4290387061602762,0.0765037252407777,0.0003634381246592,0.2202435035435217,0.0456114846447392,0.0183536252952934,0.0,0.0488824277666727,0.0510630565146283,0.1099400327094312,5503.0,12.0,0,Vegetarians
13118,Gilbert Dewinter,1,26,1.0,1.0,1.0,2.0,2791.0,411.0,13.0,998.0,325.0,17.0,1.0,1.0,468.0,141.0,519.0,335.0,0.2498610905221508,2021.0,1,38.77404959630338,-9.174914571290495,5672.0,0.4920662905500705,0.0724612129760225,0.0001763046544428,0.1759520451339915,0.0572990126939351,0.0029971791255289,0.0001763046544428,0.0825105782792665,0.0248589562764456,0.0915021156558533,2836.0,3.0,1,Vegetarians
30138,Mamie Hacker,0,40,1.0,0.0,1.0,1.0,3764.0,430.0,17.0,1344.0,293.0,169.0,0.0,2.0,248.0,116.0,560.0,115.0,0.0954264281730375,2010.0,0,38.76047814586711,-9.143794552904987,6926.0,0.5434594282414091,0.0620848974877274,0.0002887669650591,0.1940514005197805,0.0423043603811723,0.0244008085475021,0.0,0.0358071036673404,0.0167484839734334,0.0808547502165752,6926.0,14.0,0,Vegetarians
33488,Meredith Miller,0,75,1.0,0.0,1.0,2.0,2370.0,74.0,24.0,1003.0,208.0,227.0,1.0,0.0,623.0,359.0,411.0,39.0,0.2512499374187913,2015.0,0,38.71783128993932,-9.17463166321244,5276.0,0.4492039423805913,0.0140257771038665,0.0,0.1901061410159211,0.0394238059135708,0.0430250189537528,0.0001895375284306,0.118081880212282,0.0680439727065959,0.0778999241849886,2638.0,9.0,0,Vegetarians
7206,Cornelia Bruce,0,52,1.0,0.0,0.0,1.0,3880.0,44.0,11.8,765.0,408.0,6.0,2.0,0.0,339.0,265.0,303.0,193.0,0.1533951853183994,2005.0,1,38.7721407706521,-9.166914204104822,6012.0,0.6453759148369926,0.0073186959414504,0.0,0.1272455089820359,0.0678642714570858,0.0009980039920159,0.0003326679973386,0.0563872255489021,0.0440785096473719,0.0503992015968063,6012.0,19.0,2,Vegetarians
3282,Michelle Williams,0,50,1.0,0.0,1.0,1.0,3335.0,698.0,6.0,1332.0,273.0,124.0,3.0,1.0,615.0,275.0,436.0,274.0,0.1523744630102328,2009.0,1,38.76968971943147,-9.19270008863912,7092.0,0.4702481669486745,0.0984207557811618,0.0001410039481105,0.1878172588832487,0.0384940778341793,0.0174844895657078,0.0004230118443316,0.0867174280879864,0.0387760857304004,0.0614777213761985,7092.0,15.0,1,Vegetarians
10750,Sarah Nelson,0,81,1.0,1.0,1.0,1.0,4308.0,515.0,8.0,1049.0,273.0,36.0,0.0,0.0,345.0,258.0,531.0,111.0,0.0013680540689704,2009.0,1,38.77278916620722,-9.17850311101136,7315.0,0.5889268626110732,0.0704032809295967,0.0,0.143403964456596,0.0373205741626794,0.0049213943950786,0.0,0.0471633629528366,0.03526999316473,0.0725905673274094,7315.0,15.0,2,Vegetarians
39323,Anna Slayman,0,76,1.0,0.0,0.0,1.0,3586.0,174.0,7.0,1052.0,378.0,117.0,1.0,0.0,175.0,241.0,531.0,303.0,-0.0105390989267608,2007.0,0,38.75637460735227,-9.162452112576633,6255.0,0.5733013589128697,0.0278177458033573,0.0,0.168185451638689,0.0604316546762589,0.018705035971223,0.0001598721023181,0.0279776179056754,0.038529176658673,0.0848920863309352,6255.0,17.0,0,Vegetarians
42384,June Long,0,58,1.0,1.0,1.0,1.0,3016.0,387.0,24.0,1077.0,226.0,149.0,1.0,0.0,656.0,157.0,512.0,34.0,0.1600366034201488,2009.0,0,38.7339335233894,-9.151806741854694,6181.0,0.4879469341530497,0.0626112279566413,0.0,0.174243649894839,0.0365636628377285,0.0241061316939006,0.000161786118751,0.1061316939006633,0.0254004206439087,0.0828344928005177,6181.0,15.0,0,Vegetarians
36048,Peter Dorsette,1,52,1.0,0.0,1.0,1.0,2970.0,246.0,7.0,877.0,301.0,23.0,0.0,372.0,782.0,237.0,463.0,215.0,0.1971015259357909,2007.0,0,38.73604005032964,-9.15452299035131,6271.0,0.4736086748524956,0.0392281932706107,0.0593206825067772,0.1398501036517301,0.0479987242863977,0.0036676766066018,0.0,0.1247010046244618,0.0377930154680274,0.0738319247328974,6271.0,17.0,0,Vegetarians
37725,Elsie Davis,0,62,1.0,1.0,1.0,1.0,2859.0,77.0,13.0,999.0,253.0,26.0,1.0,1.0,505.0,261.0,463.0,209.0,0.1394559464954559,2015.0,0,38.71205521817516,-9.142131423582954,5445.0,0.525068870523416,0.0141414141414141,0.0001836547291092,0.1834710743801653,0.0464646464646464,0.0047750229568411,0.0001836547291092,0.0927456382001836,0.0479338842975206,0.0850321395775941,5445.0,9.0,0,Vegetarians
26460,David Brown,1,43,1.0,0.0,0.0,1.0,3356.0,836.0,9.0,929.0,403.0,173.0,0.0,207.2,657.0,368.0,590.0,254.0,0.215756996711992,2010.0,0,38.71832586409222,-9.160979234224277,7519.2,0.4463240770294712,0.1111820406426215,0.0275561229918076,0.1235503776997553,0.0535961272475795,0.0230077667837003,0.0,0.0873763166294286,0.0489413767422066,0.078465794233429,7519.2,14.0,0,Vegetarians
21042,Brenda Ward,0,29,1.0,0.4,0.0,1.0,1489.0,88.0,13.0,804.0,332.0,40.0,0.0,0.0,647.0,255.0,562.0,185.0,0.3284019035488834,2018.0,1,38.75094115933934,-9.196473988942897,4217.0,0.353094617026322,0.020867915579796,0.0,0.1906568650699549,0.0787289542328669,0.0094854161726345,0.0,0.1534266065923642,0.0604695281005454,0.1332700972255157,4217.0,6.0,0,Vegetarians
10888,Angela Jepson,0,35,1.0,1.0,1.0,1.0,3079.0,635.0,8.0,911.0,318.0,222.0,1.0,1.0,642.0,325.0,624.0,277.0,0.1430203972897823,2012.0,1,38.78034216298177,-9.160035137543169,6758.0,0.4556081680970701,0.0939627108612015,0.0001479727730097,0.134803196211897,0.0470553418171056,0.0328499556081681,0.0001479727730097,0.0949985202722699,0.048091151228174,0.0923350103580941,6758.0,12.0,3,Vegetarians
28228,James Haffner,1,48,1.0,0.0,1.0,1.0,2712.0,196.0,14.0,1220.0,362.0,174.0,0.0,1.0,741.0,87.0,479.0,331.0,0.1120293713425707,2009.0,0,38.70806064894027,-9.157046649951267,5972.0,0.4541192230408573,0.0328198258539852,0.0001674480910917,0.2042866711319491,0.0606162089752176,0.0291359678499665,0.0,0.1240790354989953,0.0145679839249832,0.0802076356329537,5972.0,15.0,0,Vegetarians
2147,Kurt Adams,1,83,1.0,0.0,1.0,1.0,2841.0,174.0,15.0,1045.0,361.0,175.0,0.0,1.0,400.0,192.0,447.0,168.0,0.2161743727265763,2007.0,1,38.73399924754657,-9.168839061829743,5636.0,0.5040809084457062,0.0308729595457771,0.0001774308019872,0.1854151880766501,0.0640525195173882,0.0310503903477643,0.0,0.0709723207948899,0.0340667139815471,0.0793115684882895,5636.0,17.0,3,Vegetarians
20243,Linda Cortez,0,76,1.0,1.0,0.0,2.0,3006.0,170.0,15.0,1142.0,216.0,49.0,1.0,0.0,205.0,216.0,467.0,286.0,0.0941946685788722,2010.0,1,38.74553874229984,-9.133360452105212,5472.0,0.5493421052631579,0.0310672514619883,0.0,0.2086988304093567,0.0394736842105263,0.008954678362573,0.0001827485380116,0.0374634502923976,0.0394736842105263,0.0853435672514619,2736.0,14.0,0,Vegetarians
27280,Bonnie Collins,0,42,1.0,0.0,0.0,1.0,2267.0,101.0,17.0,702.0,282.0,156.0,1.0,2.0,206.0,117.0,471.0,20.0,0.1389362923389835,2008.0,0,38.76576441712431,-9.150692690917417,4305.0,0.5265969802555168,0.0234610917537746,0.0004645760743321,0.1630662020905923,0.0655052264808362,0.0362369337979094,0.000232288037166,0.0478513356562137,0.027177700348432,0.1094076655052264,4305.0,16.0,0,Vegetarians
39052,Ralph Eagle,1,23,1.0,1.0,1.0,1.0,3386.0,133.0,12.6,949.0,360.0,60.0,0.0,2.0,597.0,301.0,605.0,161.0,0.2135076981265305,2024.0,0,38.783882109723024,-9.195349650720498,6393.0,0.5296417957140622,0.0208040043797903,0.0003128421711246,0.1484436101986548,0.0563115908024401,0.00938526513374,0.0,0.0933833880807132,0.0470827467542624,0.0946347567652119,6393.0,0.0,0,Vegetarians
12035,Stephen Mcgruder,1,35,1.0,0.0,1.0,2.0,3464.0,306.0,12.0,1265.0,406.0,21.0,1.0,0.0,604.0,290.0,690.0,24.0,0.0572177652439454,2009.0,1,38.7205489523308,-9.13747666427653,7047.0,0.4915566907904072,0.0434227330779054,0.0,0.1795090109266354,0.0576131687242798,0.0029799914857386,0.0001419043564637,0.085710231304101,0.0411522633744856,0.0979140059599829,3523.5,15.0,1,Vegetarians
34450,Sue Cessna,0,31,1.0,0.0,0.0,1.0,2983.0,461.0,11.2,1412.0,261.0,9.0,1.0,2.0,773.0,364.0,612.0,186.0,0.2566411231093413,2016.0,0,38.78213784103131,-9.137898269045838,6878.0,0.4337016574585635,0.0670252980517592,0.0002907822041291,0.2052922361151497,0.0379470776388485,0.0013085199185809,0.0001453911020645,0.1123873218958999,0.0529223611514975,0.0889793544635068,6878.0,8.0,0,Vegetarians
40654,Jimmy Gebhart,1,49,1.0,0.0,1.0,1.0,3174.0,258.0,18.0,1052.0,152.0,69.0,1.0,0.0,393.0,29.0,402.0,251.0,0.2702660650832016,2007.0,0,38.75612215520872,-9.15363654155703,5530.0,0.5739602169981917,0.0466546112115732,0.0,0.1902350813743218,0.0274864376130198,0.0124773960216998,0.0001808318264014,0.0710669077757685,0.0052441229656419,0.0726943942133815,5530.0,17.0,0,Vegetarians
19789,Evette Acker,0,67,1.0,0.0,0.0,1.0,3244.0,491.0,23.0,692.0,197.0,113.0,0.0,0.0,986.0,435.0,684.0,142.0,0.2181336603001567,2007.0,1,38.778966788551465,-9.141927807464214,6842.0,0.4741303712364805,0.0717626425021923,0.0,0.1011400175387313,0.0287927506577024,0.0165156387021338,0.0,0.1441099093832212,0.0635779011984799,0.0999707687810581,6842.0,17.0,3,Vegetarians
2712,Katharina Smith,0,42,1.0,1.0,0.0,1.0,2855.0,5.0,12.0,1026.0,336.0,171.0,1.0,0.0,520.0,420.0,522.0,180.0,0.3873765474628492,2007.0,1,38.75982661559716,-9.11793144586106,5856.0,0.4875341530054645,0.000853825136612,0.0,0.1752049180327868,0.0573770491803278,0.0292008196721311,0.0001707650273224,0.0887978142076502,0.0717213114754098,0.089139344262295,5856.0,17.0,1,Vegetarians
41254,Christopher Lane,1,35,1.0,0.0,0.0,2.0,2271.0,183.0,12.0,942.0,446.0,115.0,0.0,0.0,737.0,213.0,526.0,186.0,0.1718106170255271,2008.0,0,38.78258840703446,-9.16228835598035,5433.0,0.4180011043622308,0.033683048039757,0.0,0.1733848702374378,0.0820909258236701,0.0211669427572243,0.0,0.1356524940180379,0.0392048591938155,0.0968157555678262,2716.5,16.0,0,Vegetarians
16603,Ila Wise,0,51,1.0,0.0,1.0,1.0,2085.0,175.0,9.0,1269.0,233.0,25.0,1.0,0.0,408.0,82.0,366.0,166.0,0.0370447549966104,2018.0,1,38.71541328151504,-9.13696221337782,4644.0,0.4489664082687338,0.0376830318690783,0.0,0.2732558139534883,0.0501722652885443,0.0053832902670111,0.0002153316106804,0.0878552971576227,0.0176571920757967,0.0788113695090439,4644.0,6.0,3,Vegetarians
49786,Kortney Larsen,0,41,1.0,0.0,1.0,1.0,2782.0,321.0,11.0,1050.0,276.0,118.0,1.0,0.0,742.0,166.0,483.0,214.0,0.1139974373146732,2006.0,0,38.76142140989029,-9.125610689811715,5939.0,0.468429028455969,0.054049503283381,0.0,0.1767974406465735,0.0464724701128136,0.0198686647583768,0.0001683785149014,0.1249368580569119,0.0279508334736487,0.0813268226974238,5939.0,18.0,0,Vegetarians
30024,Adele Brunk,0,37,1.0,0.0,0.0,1.0,2652.0,317.0,11.0,650.0,354.0,231.0,1.0,2.0,638.0,198.0,556.0,111.0,0.1679029305008477,2012.0,0,38.74066502298908,-9.131109926759564,5599.0,0.473656010001786,0.0566172530809073,0.0003572066440435,0.1160921593141632,0.0632255759957135,0.0412573673870334,0.0001786033220217,0.1139489194499017,0.0353634577603143,0.099303447044115,5599.0,12.0,0,Vegetarians
10634,Marion Painter,0,70,1.0,1.0,1.0,2.0,2886.0,236.0,19.0,816.0,219.0,7.0,1.0,1.0,403.0,135.0,640.0,187.0,0.0476035266239393,2011.0,1,38.7807343224339,-9.137542661956353,5344.0,0.5400449101796407,0.0441616766467065,0.0001871257485029,0.1526946107784431,0.0409805389221556,0.0013098802395209,0.0001871257485029,0.0754116766467065,0.0252619760479041,0.1197604790419161,2672.0,13.0,3,Vegetarians
10409,Pat Barkley,1,44,1.0,1.0,0.0,1.0,2472.0,308.0,13.0,1173.0,265.0,208.0,0.0,2.0,507.0,341.0,644.0,88.0,0.0470575861898349,2016.0,1,38.75721770829285,-9.125558020153443,5920.0,0.4175675675675676,0.052027027027027,0.0003378378378378,0.1981418918918918,0.0447635135135135,0.0351351351351351,0.0,0.0856418918918918,0.0576013513513513,0.1087837837837837,5920.0,8.0,1,Vegetarians
26588,Alice Land,0,68,1.0,0.0,0.0,1.0,3165.0,915.0,16.0,1133.0,369.0,121.0,2.0,1.0,622.0,264.0,611.0,142.0,0.2583653526344487,2010.0,0,38.75818751620494,-9.13420607818992,7203.0,0.4394002498958767,0.127030403998334,0.0001388310426211,0.1572955712897404,0.051228654727197,0.0167985561571567,0.0002776620852422,0.0863529085103429,0.0366513952519783,0.0848257670415104,7203.0,14.0,0,Vegetarians
7581,Susan Hall,0,79,1.0,0.0,1.0,1.0,2854.0,414.0,12.0,830.0,335.0,130.0,1.0,1.0,590.0,178.0,466.0,242.0,0.1885159003270969,2012.0,1,38.71952372511422,-9.118466346072983,5799.0,0.4921538196240731,0.0713916192446973,0.0001724435247456,0.143128125538886,0.0577685807897913,0.0224176582169339,0.0001724435247456,0.101741679599931,0.0306949474047249,0.0803586825314709,5799.0,12.0,3,Vegetarians
33624,Ralph Byers,1,51,1.0,1.0,0.0,1.0,4162.0,613.0,17.0,987.6,220.0,198.0,2.0,0.0,553.0,269.0,643.0,93.0,0.2569401534923616,2011.0,0,38.77690724486013,-9.148342408181811,7647.6,0.5442230242167477,0.0801558658925676,0.0,0.1291385532716146,0.0287671949369736,0.0258904754432763,0.0002615199539724,0.0723102672733929,0.0351744338092996,0.0840786652021549,7647.6,13.0,0,Vegetarians
62,Renee Crowe,0,58,1.0,0.0,0.0,1.0,3261.0,509.0,12.0,925.0,418.0,113.0,1.0,1.0,647.0,129.0,583.0,301.0,0.0309082412629452,2011.0,1,38.75437320110737,-9.1514825641583,6587.0,0.4950660391680583,0.0772734173371793,0.0001518141794443,0.1404281159860331,0.0634583270077425,0.0171550022772126,0.0001518141794443,0.0982237741005009,0.0195840291483224,0.0885076666160619,6587.0,13.0,2,Vegetarians
45228,Trudy Cornwell,0,79,1.0,1.0,0.0,1.0,2903.0,224.0,8.0,1028.0,231.0,48.0,0.0,2.0,648.0,318.0,756.0,146.0,0.2394487976545573,2008.0,0,38.73624117567327,-9.16015759720296,6158.0,0.4714192919779149,0.0363754465735628,0.0003247807729782,0.1669373173108152,0.0375121792789866,0.0077947385514777,0.0,0.1052289704449496,0.0516401429035401,0.1227671321857746,6158.0,16.0,0,Vegetarians
40643,Ethan Rodriguez,1,35,1.0,0.0,0.0,1.0,2789.0,280.0,17.0,1106.0,327.0,161.0,0.0,2.0,362.0,317.0,501.0,91.0,0.1356143550492074,2009.0,0,38.73409810512878,-9.11992393917787,5845.0,0.4771599657827203,0.0479041916167664,0.0003421727972626,0.1892215568862275,0.0559452523524379,0.0275449101796407,0.0,0.0619332763045337,0.0542343883661248,0.0857142857142857,5845.0,15.0,0,Vegetarians
16721,Albert Stgermain,1,26,1.0,1.0,1.0,1.0,3309.0,879.0,7.0,847.0,489.0,309.0,1.0,1.0,627.0,281.0,563.0,265.0,0.2685279520770902,2021.0,1,38.78252231708637,-9.142076002368842,7306.0,0.452915411990145,0.1203120722693676,0.0001368738023542,0.1159321105940323,0.0669312893512181,0.0422940049274568,0.0001368738023542,0.0858198740761018,0.0384615384615384,0.0770599507254311,7306.0,3.0,3,Vegetarians
45908,Dianne Walker,0,52,1.0,1.0,0.0,2.0,2096.0,796.0,11.0,1130.0,297.0,104.0,1.0,2.0,800.0,58.0,590.0,244.0,0.2839812586829434,2013.0,0,38.74077784861208,-9.168381296802965,5874.0,0.3568266939053456,0.1355124276472591,0.0003404834865509,0.1923731699012598,0.0505617977528089,0.0177051413006469,0.0001702417432754,0.1361933946203609,0.0098740211099761,0.1004426285325161,2937.0,11.0,0,Vegetarians
21877,David Howarter,1,82,1.0,1.0,1.0,1.0,2718.0,193.0,7.0,1447.0,554.0,97.0,1.0,1.0,349.0,183.0,683.0,225.0,0.217226124859725,2012.0,1,38.70821978726834,-9.154449725907089,6226.0,0.4365563764857051,0.0309990362993896,0.0001606167683906,0.2324124638612271,0.0889816896884034,0.0155798265338901,0.0001606167683906,0.0560552521683263,0.0293928686154834,0.1097012528107934,6226.0,12.0,0,Vegetarians
25625,Dalia Lovelace,0,40,1.0,0.0,1.0,2.0,3017.0,998.0,11.0,1281.0,363.0,51.0,1.0,0.0,817.0,232.0,467.0,197.0,0.1431091140510704,2009.0,0,38.736568645992165,-9.194792343534743,7227.0,0.4174622941746229,0.1380932613809326,0.0,0.1772519717725197,0.0502283105022831,0.0070568700705687,0.0001383700013837,0.1130482911304829,0.0321018403210184,0.0646187906461879,3613.5,15.0,0,Vegetarians
18861,Anne Gorman,0,38,1.0,0.0,0.0,1.0,3306.0,184.0,17.0,1056.0,326.0,23.0,1.0,1.0,415.0,64.0,619.0,142.0,0.3483871894340545,2016.0,1,38.75081227293788,-9.180701355798368,5995.0,0.5514595496246872,0.0306922435362802,0.0001668056713928,0.1761467889908257,0.0543786488740617,0.003836530442035,0.0001668056713928,0.0692243536280233,0.0106755629691409,0.1032527105921601,5995.0,8.0,3,Vegetarians
6303,Laura Paget,0,47,1.0,1.0,0.0,1.0,3550.0,699.0,20.0,1117.0,217.0,286.0,1.0,1.0,366.0,189.0,492.0,295.0,0.1308178224150016,2009.0,1,38.7111033924522,-9.14577502749897,6918.0,0.5131540907776814,0.101040763226366,0.0001445504481063,0.1614628505348366,0.0313674472390864,0.0413414281584272,0.0001445504481063,0.0529054640069384,0.0273200346921075,0.0711188204683434,6918.0,15.0,2,Vegetarians
31925,John Richardson,1,68,1.0,1.0,0.0,1.0,2369.0,640.0,13.0,1016.0,441.0,125.0,0.0,0.0,419.0,351.0,518.0,99.0,0.2159479943827412,2013.0,0,38.76724386689489,-9.163727689946493,5879.0,0.4029596870216023,0.1088620513692805,0.0,0.1728185065487327,0.0750127572716448,0.0212621194080625,0.0,0.0712706242558258,0.0597040312978397,0.0881102228270113,5879.0,11.0,0,Vegetarians
18849,Laura Banks,0,30,1.0,0.0,0.0,1.0,2736.0,208.0,14.0,1382.0,345.0,130.0,1.0,0.0,490.0,223.0,630.0,335.0,0.2352438467545983,2017.0,1,38.75622776009091,-9.161122001162065,6145.0,0.445240032546786,0.0338486574450773,0.0,0.2248982912937347,0.0561432058584214,0.0211554109031733,0.0001627339300244,0.0797396257119609,0.0362896663954434,0.1025223759153783,6145.0,7.0,3,Vegetarians
24508,Kaitlyn Bullins,0,27,1.0,1.0,1.0,1.0,1964.0,652.0,10.0,804.0,478.0,34.0,1.0,1.0,710.0,298.0,471.0,219.0,0.2277933469333147,2020.0,1,38.78164688767007,-9.153955046848273,5413.0,0.362830223535932,0.1204507666728246,0.0001847404396822,0.1485313135045261,0.0883059301681138,0.0062811749491963,0.0001847404396822,0.131165712174395,0.0550526510253094,0.087012747090338,5413.0,4.0,0,Vegetarians
13267,Grace Moore,0,80,1.0,0.0,0.0,2.0,3072.0,439.0,17.0,863.0,365.0,1.0,1.0,1.0,429.0,279.0,308.0,164.0,0.2747303504313916,2011.0,1,38.76606766288349,-9.19174222782006,5758.0,0.5335185828412643,0.0762417506078499,0.0001736714136853,0.1498784300104202,0.0633900659951372,0.0001736714136853,0.0001736714136853,0.0745050364709968,0.0484543244182007,0.0534907954150746,2879.0,13.0,3,Vegetarians
21756,Andres Ashley,1,42,1.0,0.0,1.0,1.0,3359.0,314.0,6.0,1136.0,404.0,135.0,1.0,1.0,469.0,185.0,615.0,229.0,0.3455121460638602,2007.0,1,38.77395870477103,-9.119918321656792,6619.0,0.5074784710681371,0.0474391902100015,0.0001510802235987,0.1716271340081583,0.0610364103338872,0.0203958301858286,0.0001510802235987,0.0708566248678048,0.0279498413657652,0.0929143375132195,6619.0,17.0,0,Vegetarians
41042,Rebecca Henderson,0,62,1.0,0.0,0.0,2.0,3248.0,93.0,17.0,547.0,336.0,199.0,0.0,0.0,1235.0,234.0,559.0,170.0,0.05445325915324,2009.0,0,38.727838568182186,-9.137148012842982,6451.0,0.5034878313439777,0.0144163695551077,0.0,0.0847930553402573,0.0520849480700666,0.0308479305534025,0.0,0.1914431871027747,0.0362734459773678,0.0866532320570454,3225.5,15.0,0,Vegetarians
14144,Marge March,0,70,1.0,1.0,0.0,2.0,2538.0,157.0,12.0,907.0,415.0,100.0,1.0,1.0,689.0,223.0,458.0,188.0,0.1536294985745635,2012.0,1,38.724004237751366,-9.148577765827948,5489.0,0.4623793040626708,0.0286026598651849,0.000182182546912,0.1652395700491893,0.0756057569684824,0.0182182546912005,0.000182182546912,0.125523774822372,0.0406267079613773,0.0834396064856986,2744.5,12.0,2,Vegetarians
42098,Joseph Nightingale,1,71,1.0,0.6,1.0,1.0,2848.0,577.0,17.0,1326.0,329.0,219.0,2.0,1.0,617.0,168.0,525.0,347.0,0.1141056232174996,2008.0,0,38.7607740813659,-9.141331600963388,6612.0,0.4307320024198427,0.087265577737447,0.0001512401693889,0.2005444646098003,0.0497580157289776,0.0331215970961887,0.0003024803387779,0.0933151845130066,0.0254083484573502,0.0794010889292196,6612.0,16.0,0,Vegetarians
36943,Robert Mosby,1,78,1.0,0.0,0.0,1.0,2624.0,284.0,13.0,917.0,408.0,185.0,2.0,2.0,73.0,229.0,433.0,130.0,0.1974012728165064,2006.0,0,38.72058509092898,-9.15595080773709,5157.0,0.5088229590847392,0.0550707775838665,0.0003878223773511,0.1778165600155129,0.0791157649796393,0.0358735699049835,0.0003878223773511,0.0141555167733178,0.0444056622067093,0.0839635446965289,5157.0,18.0,0,Vegetarians
35653,Carol Forster,0,74,1.0,0.0,1.0,1.0,3373.0,293.0,21.0,1140.0,277.0,169.0,0.0,2.0,622.0,13.0,400.0,104.0,0.1622977491281976,2012.0,0,38.71014301639451,-9.15295602012898,6289.0,0.5363332803307362,0.0465892828748608,0.0003180155827635,0.1812688821752265,0.0440451582127524,0.0268723167435204,0.0,0.0989028462394657,0.0020671012879631,0.063603116552711,6289.0,12.0,0,Vegetarians
40679,Petra Kelm,0,24,1.0,1.0,0.0,1.0,2896.0,785.0,22.0,865.0,243.0,13.0,0.0,2.0,439.0,59.0,506.0,139.0,0.2955652586218383,2023.0,0,38.71795781275986,-9.17336212588971,5808.0,0.4986225895316804,0.1351584022038567,0.0003443526170798,0.1489325068870523,0.0418388429752066,0.0022382920110192,0.0,0.0755853994490358,0.0101584022038567,0.0871212121212121,5808.0,1.0,0,Vegetarians
3694,Tony Quiroz,1,72,1.0,0.0,1.0,2.0,3183.0,660.0,12.0,789.0,412.0,56.0,0.0,0.0,430.0,102.0,457.0,412.0,0.168464911538018,2015.0,1,38.77030085784827,-9.182916943206338,6089.0,0.5227459352931516,0.1083921826244046,0.0,0.1295779274100837,0.0676629988503859,0.009196912465101,0.0,0.0706191492855969,0.0167515191328625,0.0750533749384135,3044.5,9.0,2,Vegetarians
2455,Columbus Derego,1,65,1.0,0.0,0.0,1.0,2842.0,830.0,17.0,785.0,362.0,60.0,0.0,1.0,542.0,139.0,427.0,251.0,0.1447355970142203,2010.0,1,38.77690199716597,-9.16877304457885,5988.0,0.4746158984635938,0.1386105544422177,0.0001670006680026,0.1310955243820975,0.0604542418169672,0.0100200400801603,0.0,0.0905143620574482,0.0232130928523714,0.0713092852371409,5988.0,14.0,1,Vegetarians
3143,Stephanie Gervais,0,59,1.0,0.0,0.0,1.0,1940.0,487.0,12.0,1038.0,123.0,234.0,1.0,1.0,188.0,343.0,513.0,263.0,0.1015831093355056,2010.0,1,38.73172040546977,-9.178596778551247,4868.0,0.3985209531635168,0.1000410846343467,0.0002054231717337,0.2132292522596549,0.0252670501232539,0.0480690221857025,0.0002054231717337,0.038619556285949,0.0704601479046836,0.1053820870994248,4868.0,14.0,1,Vegetarians
45838,Richard Reep,1,68,1.0,1.0,1.0,1.0,2708.0,113.0,11.0,942.0,237.0,118.0,0.0,2.0,767.0,239.0,499.0,255.0,0.3379412574663673,2004.0,0,38.72358454703139,-9.175450544327695,5625.0,0.4814222222222222,0.0200888888888888,0.0003555555555555,0.1674666666666666,0.0421333333333333,0.0209777777777777,0.0,0.1363555555555555,0.0424888888888888,0.0887111111111111,5625.0,20.0,0,Vegetarians
46404,Pedro Myers,1,51,1.0,1.0,0.0,1.0,7142.0,951.0,18.0,1223.0,498.0,98.0,0.0,1389.8,1142.0,158.0,350.0,188.0,0.1322794104783885,2009.0,0,38.71645805949673,-9.15757978943272,12951.8,0.5514291449837089,0.0734260874936302,0.1073055482635618,0.0944270294476443,0.0384502540187464,0.0075665158510786,0.0,0.0881730724686916,0.0121990765762287,0.0270232708967093,12951.8,15.0,0,Vegetarians
46326,Ray Howell,1,26,1.0,1.0,0.0,1.0,3985.0,149.0,18.0,1163.0,143.0,19.0,0.0,0.0,451.0,299.0,458.0,284.0,0.1065905096641909,2021.0,0,38.72816252737417,-9.132307238583694,6667.0,0.5977201139943003,0.0223488825558722,0.0,0.1744412779361032,0.0214489275536223,0.0028498575071246,0.0,0.0676466176691165,0.0448477576121193,0.0686965651717414,6667.0,3.0,0,Vegetarians
34345,Delia Woods,0,57,1.0,1.0,0.0,1.0,2633.0,386.0,17.0,1021.0,310.0,83.0,0.0,1.0,850.0,187.0,352.0,241.0,0.215666938493876,2013.0,0,38.74242295012901,-9.182726408793997,5823.0,0.4521724197149235,0.0662888545423321,0.0001717327837884,0.1753391722479821,0.0532371629744118,0.0142538210544392,0.0,0.1459728662201614,0.0321140305684355,0.0604499398935256,5823.0,11.0,0,Vegetarians
23232,Tamara Zayas,0,50,1.0,0.0,0.0,1.0,3193.0,71.0,6.0,506.0,390.0,204.0,0.0,1.0,275.0,315.0,600.0,246.0,0.2303509710662971,2011.0,1,38.72772315725621,-9.1754973606615,5555.0,0.5747974797479748,0.0127812781278127,0.0001800180018001,0.091089108910891,0.0702070207020702,0.0367236723672367,0.0,0.0495049504950495,0.0567056705670567,0.108010801080108,5555.0,13.0,0,Vegetarians
11283,Brenda Lederman,0,44,1.0,0.0,0.0,1.0,2346.0,434.0,17.0,822.0,282.0,141.0,3.0,1.0,637.0,301.0,489.0,225.0,0.1459410464242284,2011.0,1,38.72062690368171,-9.17710879200582,5456.0,0.4299853372434017,0.0795454545454545,0.000183284457478,0.1506598240469208,0.0516862170087976,0.0258431085043988,0.000549853372434,0.1167521994134897,0.0551686217008797,0.0896260997067448,5456.0,13.0,1,Vegetarians
941,Edmund Flores,1,34,1.0,0.0,1.0,1.0,2393.0,69.0,12.0,1391.0,224.0,87.0,1.0,2.0,621.0,203.0,591.0,218.0,0.2990428681766048,2015.0,1,38.73829566293532,-9.154458749373736,5582.0,0.4286993908993192,0.0123611608742386,0.0003582945180938,0.2491938373342888,0.0401289860265138,0.0155858115370834,0.0001791472590469,0.1112504478681476,0.0363668935865281,0.1058760300967395,5582.0,9.0,3,Vegetarians
35824,Valerie Garcia,0,53,1.0,1.0,1.0,2.0,3062.0,898.0,9.0,919.0,369.0,43.0,0.0,0.0,619.0,256.0,387.0,43.0,0.0705187209141131,2008.0,0,38.75332616583102,-9.132418090556955,6553.0,0.467266900656188,0.1370364718449565,0.0,0.1402411109415534,0.0563100869830611,0.0065618800549366,0.0,0.0944605524187395,0.0390660766061345,0.05905692049443,3276.5,16.0,0,Vegetarians
8105,Rachelle Coyt,0,46,1.0,0.0,1.0,1.0,3365.0,983.0,11.0,1188.0,222.0,207.0,0.0,1.0,214.0,262.0,511.0,114.0,0.0624304358404077,2012.0,1,38.72674829254152,-9.13136191966788,6953.0,0.4839637566518049,0.1413778225226521,0.0001438228102977,0.1708614986336833,0.0319286638860923,0.0297713217316266,0.0,0.0307780814037106,0.0376815762980008,0.0734934560621314,6953.0,12.0,2,Vegetarians
43951,Obdulia Thompson,0,65,1.0,0.0,1.0,1.0,2636.0,456.0,16.0,1083.0,394.0,147.0,2.0,2.0,757.0,305.0,444.0,181.0,0.3104047278824098,2011.0,0,38.72550478450452,-9.134602558170322,6226.0,0.4233858014776743,0.0732412463861227,0.0003212335367812,0.1739479601670414,0.0632830067459042,0.0236106649534211,0.0003212335367812,0.1215868936716993,0.048988114359139,0.0713138451654352,6226.0,13.0,0,Vegetarians
3142,Georgia Pugh,0,40,1.0,0.0,1.0,1.0,2993.0,419.0,18.0,1262.0,267.0,96.0,0.0,1.0,418.0,155.0,525.0,310.0,0.2273776648142418,2010.0,1,38.74833024146584,-9.118571574401122,6136.0,0.4877770534550195,0.0682855280312907,0.0001629726205997,0.2056714471968709,0.0435136897001303,0.0156453715775749,0.0,0.068122555410691,0.0252607561929595,0.0855606258148631,6136.0,14.0,2,Vegetarians
1588,Larry Collins,1,28,1.0,0.0,1.0,1.0,2732.0,561.0,15.0,1060.0,281.0,149.0,0.0,0.0,632.0,272.0,324.0,194.0,0.150464666922771,2019.0,1,38.78294250091556,-9.120341529127046,6011.0,0.4545000831808351,0.0933288970221261,0.0,0.1763433704874397,0.0467476293461986,0.0247878888704042,0.0,0.1051405756113791,0.0452503743137581,0.0539011811678589,6011.0,5.0,2,Vegetarians
47398,Scott Bowden,1,77,1.0,0.0,1.0,1.0,3086.0,113.0,9.0,1106.0,270.0,49.0,1.0,1.0,345.0,286.0,629.0,61.0,0.334073475235757,2010.0,0,38.73057489396279,-9.130965926260563,5886.0,0.5242949371389738,0.0191980971797485,0.0001698946653075,0.1879034998301053,0.0458715596330275,0.0083248386000679,0.0001698946653075,0.0586136595310907,0.0485898742779476,0.1068637444784233,5886.0,14.0,0,Vegetarians
34031,Joie Smith,0,62,1.0,1.0,0.0,1.0,3059.0,344.0,13.4,849.0,269.0,204.0,1.0,1.0,396.0,111.0,623.0,243.0,0.1978145431094585,2013.0,0,38.72517595774834,-9.193257331783046,5857.0,0.5222810312446645,0.0587331398326788,0.0001707358716066,0.1449547549940242,0.045927949462182,0.0348301178077514,0.0001707358716066,0.0676114051562233,0.0189516817483353,0.1063684480109271,5857.0,11.0,0,Vegetarians
22577,Don Hayes,1,51,1.0,1.0,1.0,1.0,3356.0,274.0,10.0,724.0,322.0,89.0,1.0,1.0,351.0,21.0,265.0,146.0,0.3071179488445376,2006.0,1,38.774502383971,-9.166083484418213,5404.0,0.6210214655810511,0.0507031828275351,0.0001850481125092,0.1339748334566987,0.0595854922279792,0.0164692820133234,0.0001850481125092,0.0649518874907476,0.0038860103626943,0.0490377498149518,5404.0,18.0,0,Vegetarians
41916,John Wagner,1,60,1.0,0.0,1.0,1.0,3162.0,376.0,14.0,1421.0,376.0,75.0,1.0,2.0,491.0,253.0,407.0,246.0,0.1690674039169495,2012.0,0,38.77046449339576,-9.139463817904655,6564.0,0.4817184643510054,0.0572821450335161,0.0003046922608165,0.2164838513101767,0.0572821450335161,0.0114259597806215,0.0001523461304082,0.0748019500304692,0.0385435709932967,0.062004875076173,6564.0,12.0,0,Vegetarians
36507,Susan Hicks,0,26,1.0,1.0,1.0,1.0,2782.0,430.0,9.0,1224.0,269.0,9.0,1.0,1.0,850.0,155.0,362.0,200.0,0.386652918858331,2021.0,0,38.74153309250969,-9.194449692861255,6083.0,0.4573401282262042,0.07068880486602,0.0001643925694558,0.2012165050139733,0.0442216011836265,0.0014795331251027,0.0001643925694558,0.1397336840374815,0.0254808482656583,0.0595101101430215,6083.0,3.0,0,Vegetarians
28736,Ellen Dimick,0,63,1.0,0.0,1.0,1.0,3010.0,184.0,7.0,1092.0,448.0,123.0,2.0,0.0,480.0,298.0,492.0,93.0,0.3219765402353466,2012.0,0,38.72083402778191,-9.141201237564951,6129.0,0.4911078479360418,0.0300212106379507,0.0,0.1781693587860988,0.0730951215532713,0.0200685266764561,0.0003263175069342,0.0783162016642192,0.0486213085332028,0.0802741067058247,6129.0,12.0,0,Vegetarians
45741,David Pringle,1,42,1.0,0.0,1.0,1.0,3316.0,128.0,9.0,753.0,343.0,40.0,0.0,1.0,477.0,86.0,350.0,247.0,0.2635416903152279,2015.0,0,38.75293429379492,-9.172165604395872,5494.0,0.6035675282125955,0.0232981434291954,0.0001820167455405,0.137058609392064,0.0624317437204222,0.0072806698216235,0.0,0.0868219876228613,0.0156534401164907,0.0637058609392064,5494.0,9.0,0,Vegetarians
8873,Dennis Wasinger,1,69,1.0,0.0,0.0,2.0,2627.0,131.0,7.0,906.0,410.0,61.0,1.0,0.0,382.0,149.0,507.0,195.0,0.0788610785921015,2008.0,1,38.743622243166094,-9.139084378669583,5174.0,0.5077309625048319,0.0253189022033243,0.0,0.1751063007344414,0.0792423656745264,0.0117897178198685,0.0001932740626207,0.0738306919211441,0.0287978353304986,0.0979899497487437,2587.0,16.0,3,Vegetarians
29822,Steven Adkins,1,35,1.0,0.0,1.0,1.0,2625.0,9.0,14.0,916.0,304.0,140.0,2.0,1.0,250.0,250.0,542.0,99.0,0.4175842245008898,2010.0,0,38.77887592163634,-9.179811583495884,5039.0,0.5209366937884501,0.0017860686644175,0.0001984520738241,0.181782099622941,0.0603294304425481,0.027783290335384,0.0003969041476483,0.0496130184560428,0.0496130184560428,0.1075610240127009,5039.0,14.0,0,Vegetarians
21539,Erich Capossela,1,76,1.0,0.0,0.0,1.0,3400.0,1114.0,15.0,1332.0,127.0,240.0,0.0,2.0,306.0,30.0,524.0,166.0,0.3107541613087693,2008.0,1,38.71747697229114,-9.13704258619238,7075.0,0.4805653710247349,0.1574558303886925,0.0002826855123674,0.1882685512367491,0.0179505300353356,0.0339222614840989,0.0,0.0432508833922261,0.0042402826855123,0.0740636042402826,7075.0,16.0,0,Vegetarians
25757,John Pares,1,72,1.0,1.0,1.0,1.0,2315.0,2.0,14.0,1322.0,429.0,109.0,2.0,0.0,156.0,395.0,550.0,92.0,0.208516479878586,2008.0,0,38.739736069731,-9.120235847209024,5280.0,0.4384469696969697,0.0003787878787878,0.0,0.2503787878787878,0.08125,0.0206439393939393,0.0003787878787878,0.0295454545454545,0.074810606060606,0.1041666666666666,5280.0,16.0,0,Vegetarians
5389,Audrey Eldridge,0,39,1.0,0.0,1.0,1.0,3317.0,878.0,17.0,665.0,253.0,11.0,2.0,2.0,797.0,70.0,533.0,418.0,0.2011849575590797,2010.0,1,38.76680286102159,-9.16124705416365,6528.0,0.5081188725490197,0.1344975490196078,0.0003063725490196,0.1018688725490196,0.0387561274509803,0.0016850490196078,0.0003063725490196,0.1220894607843137,0.0107230392156862,0.0816482843137254,6528.0,14.0,2,Vegetarians
4546,Jose Just,1,63,1.0,0.0,1.0,1.0,3214.0,262.0,12.0,975.0,224.0,23.0,1.0,2.0,299.0,196.0,319.0,212.0,0.1126386353211496,2014.0,1,38.77248563879489,-9.146459999354391,5515.0,0.5827742520398912,0.0475067996373526,0.0003626473254759,0.1767905711695376,0.0406165004533091,0.0041704442429737,0.0001813236627379,0.0542157751586582,0.0355394378966455,0.0578422484134179,5515.0,10.0,1,Vegetarians
41342,Krista Bustamante,0,42,1.0,0.0,0.0,1.0,2765.0,20.0,10.0,1218.0,181.0,239.0,1.0,1.0,133.0,313.0,391.0,99.0,0.1429695098784797,2012.0,0,38.71354012837758,-9.13641269066604,5262.0,0.5254656024325352,0.0038008361839604,0.000190041809198,0.2314709236031927,0.0343975674648422,0.0454199923983276,0.000190041809198,0.0252755606233371,0.0594830862789813,0.0743063473964272,5262.0,12.0,0,Vegetarians
26072,Emily Brantley,0,44,1.0,0.0,1.0,1.0,3607.0,373.0,9.0,984.0,260.0,68.0,1.0,1.0,467.0,255.0,374.0,100.0,0.1161949157605619,2008.0,0,38.77057146792094,-9.174325715280382,6390.0,0.5644757433489828,0.0583724569640062,0.0001564945226917,0.1539906103286385,0.0406885758998435,0.0106416275430359,0.0001564945226917,0.0730829420970266,0.0399061032863849,0.0585289514866979,6390.0,16.0,0,Vegetarians
47055,Michele Sherrill,0,23,1.0,0.0,0.0,1.0,3506.0,460.0,17.0,1048.0,208.0,106.0,0.0,0.0,937.0,163.0,670.0,237.0,0.249735095486516,2024.0,0,38.760274064121965,-9.148687360155908,7098.0,0.493941955480417,0.0648069878839109,0.0,0.1476472245703015,0.0293040293040293,0.0149337841645533,0.0,0.1320090166244012,0.0229642152719075,0.094392786700479,7098.0,0.0,0,Vegetarians
28415,Randy Rosenbaum,1,37,1.0,1.0,1.0,1.0,3075.0,129.0,17.0,1015.0,312.0,71.0,1.0,1.0,262.0,344.0,633.0,130.0,0.428106011439045,2005.0,0,38.7124197533761,-9.143283591374558,5843.0,0.5262707513263735,0.0220776998117405,0.0001711449597809,0.1737121341776484,0.0533972274516515,0.0121512921444463,0.0001711449597809,0.0448399794626048,0.0588738661646414,0.1083347595413315,5843.0,19.0,0,Vegetarians
37049,Bradley Wallace,1,46,1.0,0.0,1.0,1.0,2369.0,303.0,15.0,1095.0,273.0,40.0,2.0,0.0,439.0,172.0,392.0,103.0,0.1711273444645319,2012.0,0,38.73594668897373,-9.123982206822769,5085.0,0.4658800393313668,0.0595870206489675,0.0,0.2153392330383481,0.0536873156342182,0.007866273352999,0.0003933136676499,0.0863323500491642,0.0338249754178957,0.0770894788593903,5085.0,12.0,0,Vegetarians
49579,William Leon,1,43,1.0,1.0,1.0,1.0,3613.0,311.0,7.0,1008.0,199.0,123.0,0.0,0.0,465.0,137.0,461.0,67.0,0.1706627820058939,2011.0,0,38.7315755070231,-9.158367612200994,6317.0,0.5719487098306159,0.0492322304891562,0.0,0.1595694158619598,0.0315022953933829,0.0194712680069653,0.0,0.0736108912458445,0.0216875098939369,0.0729776792781383,6317.0,13.0,0,Vegetarians
8582,Carol Bowden,0,51,1.0,0.0,0.0,1.0,3019.0,632.0,16.0,880.0,275.0,265.0,1.0,1.0,536.0,197.0,517.0,206.0,0.2326430280486031,2008.0,1,38.74041511377414,-9.19190793035182,6323.0,0.4774632294796773,0.0999525541673256,0.0001581527755812,0.139174442511466,0.0434920132848331,0.041910485529021,0.0001581527755812,0.0847698877115293,0.0311560967894986,0.0817649849754863,6323.0,16.0,3,Vegetarians
15513,Jane Fiske,0,84,1.0,1.0,0.0,1.0,3751.0,1049.0,15.0,1018.0,311.0,28.0,1.0,0.0,681.0,246.0,590.0,194.0,0.2211959693273031,2011.0,1,38.78666206318205,-9.178633913944903,7675.0,0.488729641693811,0.1366775244299674,0.0,0.1326384364820847,0.0405211726384364,0.0036482084690553,0.0001302931596091,0.088729641693811,0.0320521172638436,0.0768729641693811,7675.0,13.0,1,Vegetarians
40014,John Moy,1,39,1.0,1.0,1.0,2.0,2724.0,428.0,22.0,889.0,384.0,19.0,0.0,1.0,778.0,151.0,687.0,84.0,0.2614347281611302,2013.0,0,38.72290751635026,-9.13303048674672,6061.0,0.4494307869988451,0.0706154099983501,0.000164989275697,0.1466754660947038,0.0633558818676786,0.0031347962382445,0.0,0.128361656492328,0.024913380630259,0.1133476324038937,3030.5,11.0,0,Vegetarians
33552,Kevin Phillips,1,33,1.0,1.0,0.0,1.0,2342.0,657.0,13.0,550.0,376.0,97.0,1.0,1.0,667.0,217.0,556.0,184.0,0.1913861315955264,2012.0,0,38.77776383216564,-9.15585838453232,5464.0,0.4286237188872621,0.1202415812591508,0.0001830161054172,0.1006588579795021,0.068814055636896,0.0177525622254758,0.0001830161054172,0.1220717423133235,0.039714494875549,0.1017569546120058,5464.0,12.0,0,Vegetarians
34785,Vicki Thomas,0,33,1.0,1.0,1.0,1.0,3589.0,560.0,16.0,804.0,82.0,254.0,1.0,1.0,310.0,131.0,454.0,27.0,0.082296916437858,2009.0,0,38.72497567388132,-9.137862109687743,6186.0,0.5801810539928872,0.0905269964435822,0.0001616553507921,0.1299709020368574,0.0132557387649531,0.0410604591011962,0.0001616553507921,0.0501131587455544,0.0211768509537665,0.0733915292596184,6186.0,15.0,0,Vegetarians
11297,Steve Gibbs,1,59,1.0,0.0,1.0,1.0,3000.0,991.0,14.0,963.0,201.0,39.0,2.0,0.0,467.0,279.0,434.0,264.0,0.2357669479971272,2011.0,1,38.7562367866194,-9.11909533090764,6376.0,0.4705144291091593,0.1554265997490589,0.0,0.1510351317440401,0.0315244667503136,0.006116687578419,0.0003136762860727,0.0732434127979924,0.0437578419071518,0.0680677540777917,6376.0,13.0,2,Vegetarians
20432,Trenton Ray,1,66,1.0,0.0,0.0,1.0,3284.0,219.0,15.0,905.0,223.0,6.0,0.0,2.0,365.0,250.0,584.0,246.0,0.1049792789115775,2007.0,1,38.71418398218805,-9.117900074602408,5838.0,0.5625214114422747,0.0375128468653648,0.000342583076396,0.1550188420692017,0.0381980130181569,0.001027749229188,0.0,0.0625214114422747,0.0428228845495032,0.1000342583076396,5838.0,17.0,0,Vegetarians
25986,Ross Mclelland,1,41,1.0,0.0,1.0,1.0,2585.0,154.0,17.0,1186.0,258.0,63.0,1.0,2.0,435.0,320.0,520.0,305.0,0.1502116156973295,2010.0,0,38.764423115771606,-9.1959533295242,5524.0,0.4679580014482259,0.0278783490224475,0.000362056480811,0.2146994931209268,0.0467052860246198,0.0114047791455467,0.0001810282404055,0.0787472845763939,0.057929036929761,0.0941346850108617,5524.0,14.0,0,Vegetarians
15475,Toni Crawford,0,79,1.0,1.0,0.0,1.0,3005.0,22.0,9.0,944.0,170.0,47.0,1.0,0.0,164.0,267.0,455.0,162.0,0.2731920748131822,2006.0,1,38.76550551340319,-9.152153829085355,5075.0,0.5921182266009852,0.0043349753694581,0.0,0.1860098522167487,0.0334975369458128,0.0092610837438423,0.0001970443349753,0.0323152709359605,0.0526108374384236,0.0896551724137931,5075.0,18.0,2,Vegetarians
20424,Sherri Phu,0,57,1.0,1.0,1.0,2.0,3497.0,520.0,17.0,1054.0,222.0,142.0,0.0,2.0,675.0,271.0,595.0,303.0,0.1350796424532795,2010.0,1,38.75032058902811,-9.171206753995882,6978.0,0.5011464603038119,0.0745199197477787,0.0002866150759529,0.1510461450272284,0.0318142734307824,0.0203496703926626,0.0,0.0967325881341358,0.0388363427916308,0.085267985096016,3489.0,14.0,0,Vegetarians
27040,Dorothy Parent,0,39,1.0,0.0,1.0,1.0,3633.0,334.0,10.0,815.0,447.0,130.0,1.0,1.0,639.0,303.0,600.0,257.0,0.2182446426060135,2004.0,0,38.73625123961681,-9.120042083625588,6903.0,0.5262929161234245,0.048384760249167,0.0001448645516442,0.1180646095900333,0.064754454584963,0.0188323917137476,0.0001448645516442,0.0925684485006518,0.0438939591481964,0.0869187309865276,6903.0,20.0,0,Vegetarians
13683,Douglas Chamberlain,1,60,1.0,1.0,1.0,1.0,2588.0,211.0,12.0,1001.0,339.0,68.0,1.0,1.0,679.0,317.0,372.0,190.0,0.3372967358765675,2011.0,1,38.73119173790352,-9.155142599131151,5577.0,0.4640487717410794,0.0378339609108839,0.0001793078716155,0.1794871794871795,0.0607853684776761,0.0121929352698583,0.0001793078716155,0.1217500448269679,0.0568405953021337,0.0667025282409897,5577.0,13.0,1,Vegetarians
29482,Raul Barrett,1,53,1.0,1.0,1.0,1.0,2588.0,298.0,19.0,1190.0,395.0,74.0,3.0,0.0,591.0,184.0,274.0,233.0,0.3512743699207361,2011.0,0,38.7708467196516,-9.130610879224292,5597.0,0.4623905663748436,0.0532428086474897,0.0,0.2126139003037341,0.0705735215293907,0.0132213685903162,0.0005360014293371,0.1055922815794175,0.0328747543326782,0.0489547972127925,5597.0,13.0,0,Vegetarians
31651,Brandi Bennett,0,41,1.0,0.0,0.0,1.0,3196.0,41.0,17.0,823.0,376.0,154.0,0.0,268.2,556.0,251.0,410.0,320.0,0.2064869840141047,2013.0,0,38.77805232102005,-9.184876478665045,6075.2,0.5260732156966026,0.0067487490123781,0.0441466947590202,0.1354687911509086,0.0618909665525414,0.0253489597050302,0.0,0.0915196207532262,0.0413155122465104,0.0674874901237819,6075.2,11.0,0,Vegetarians
32402,Caleb Tripp,1,63,1.0,0.0,0.0,1.0,2007.0,1100.0,18.0,974.0,206.0,271.0,1.0,0.0,748.0,83.0,532.0,137.0,0.2383483144633781,2007.0,0,38.76733609237465,-9.126453565756384,5922.0,0.3389057750759878,0.1857480580884836,0.0,0.1644714623438027,0.0347855454238432,0.0457615670381627,0.0001688618709895,0.1263086795001688,0.014015535292131,0.0898345153664302,5922.0,17.0,0,Vegetarians
19006,Thomas Eschen,1,73,1.0,0.0,0.0,2.0,2663.0,263.0,22.0,1161.0,369.0,171.0,2.0,3.0,203.0,169.0,502.0,195.0,0.1958880424364168,2008.0,1,38.77240810367249,-9.17011248821268,5506.0,0.4836541954231747,0.0477660733745005,0.0005448601525608,0.2108608790410461,0.0670177987649836,0.031057028695968,0.0003632401017072,0.0368688703232836,0.0306937885942608,0.0911732655285143,2753.0,16.0,2,Vegetarians
25153,Kerry Simmons,1,54,1.0,1.0,1.0,1.0,2982.0,1007.0,17.0,994.0,217.0,196.0,2.0,0.0,539.0,235.0,492.0,397.0,0.2983418502090658,2010.0,0,38.71162336332372,-9.14103776389801,6664.0,0.4474789915966387,0.151110444177671,0.0,0.1491596638655462,0.032563025210084,0.0294117647058823,0.0003001200480192,0.0808823529411764,0.0352641056422569,0.073829531812725,6664.0,14.0,0,Vegetarians
48649,William Snyder,1,74,1.0,0.0,1.0,1.0,3192.0,351.0,10.0,1272.0,404.0,272.0,1.0,1.0,540.0,157.0,461.0,266.0,0.1575777867137014,2012.0,0,38.783126608277605,-9.171752421129726,6651.0,0.4799278304014434,0.0527740189445196,0.0001503533303262,0.1912494361750112,0.0607427454518117,0.0408961058487445,0.0001503533303262,0.081190798376184,0.0236054728612238,0.0693128852804089,6651.0,12.0,0,Vegetarians
27528,Kevin Ward,1,56,1.0,1.0,1.0,1.0,2313.0,905.0,15.0,1219.0,285.0,176.0,1.0,1.0,188.0,129.0,529.0,47.0,0.1756256580939677,2012.0,0,38.75257019954876,-9.15056782002988,5746.0,0.4025408980160111,0.1575008701705534,0.0001740341106856,0.2121475809258614,0.0495997215454229,0.0306300034806822,0.0001740341106856,0.0327184128089105,0.0224504002784545,0.0920640445527323,5746.0,12.0,0,Vegetarians
40545,John Morgan,1,46,1.0,0.0,1.0,1.0,2978.0,58.0,17.0,813.0,398.0,32.0,1.0,0.0,619.0,249.0,534.0,91.0,0.1837786977991113,2007.0,0,38.77689124985191,-9.196421217855358,5682.0,0.5241112284406899,0.0102076733544526,0.0,0.1430834213305174,0.0700457585357268,0.0056318197817669,0.0001759943681802,0.108940513903555,0.0438225976768743,0.0939809926082365,5682.0,17.0,0,Vegetarians
11058,Barbara Dungy,0,50,1.0,1.0,0.0,1.0,3868.0,94.0,17.0,947.0,392.0,241.0,1.0,1.0,767.0,204.0,503.0,213.0,0.2206860089473394,2014.0,1,38.73234582625293,-9.16578733577786,7018.0,0.5511541749786264,0.0133941293815901,0.000142490738102,0.1349387289826161,0.0558563693359931,0.0343402678825876,0.000142490738102,0.1092903961242519,0.0290681105728127,0.0716728412653177,7018.0,10.0,2,Vegetarians
19708,Charles Turner,1,23,1.0,1.0,0.0,2.0,2330.0,134.0,14.0,773.0,463.0,306.0,1.0,2.0,571.0,263.0,471.0,212.0,0.2430994692005374,2024.0,1,38.733109908070496,-9.124964122043538,5314.0,0.4384644335716974,0.0252164094843808,0.0003763643206624,0.145464809936018,0.0871283402333458,0.0575837410613473,0.0001881821603312,0.1074520135491155,0.0494919081671057,0.0886337975159954,2657.0,0.0,3,Vegetarians
7889,Victor Desilets,1,31,1.0,1.0,1.0,1.0,2662.0,362.0,6.0,1349.0,386.0,20.0,1.0,0.0,447.0,76.0,587.0,56.0,0.1280707736931882,2016.0,1,38.70831390319229,-9.117983087033991,5890.0,0.4519524617996604,0.0614601018675721,0.0,0.2290322580645161,0.06553480475382,0.0033955857385398,0.0001697792869269,0.0758913412563667,0.0129032258064516,0.099660441426146,5890.0,8.0,2,Vegetarians
46619,Virgie Carlucci,0,84,1.0,1.0,1.0,2.0,3084.0,156.0,9.0,893.0,218.0,95.0,1.0,1.0,515.0,87.0,473.0,104.0,0.0839109235502745,2013.0,0,38.77268847473901,-9.18031484984467,5523.0,0.5583921781640413,0.0282455187398153,0.0001810610175629,0.1616874886836864,0.0394713018287162,0.0172007966684772,0.0001810610175629,0.0932464240449031,0.0157523085279739,0.0856418613072605,2761.5,11.0,0,Vegetarians
24131,Debbie Mclaughlin,0,82,1.0,0.0,1.0,2.0,3290.0,491.0,6.0,1146.0,248.0,24.0,0.0,1.0,369.0,264.0,350.0,28.0,0.2457805946523032,2010.0,1,38.72933209079296,-9.152456895900135,6183.0,0.532104156558305,0.0794112890182759,0.0001617337861879,0.1853469189713731,0.0401099789746077,0.0038816108685104,0.0,0.0596797671033478,0.0426977195536147,0.0566068251657771,3091.5,14.0,0,Vegetarians
44289,Kelly Stoddard,0,63,1.0,1.0,1.0,1.0,2685.0,418.0,17.0,964.0,368.0,234.0,0.0,1.0,685.0,270.0,598.0,126.0,0.3666359159664089,2013.0,0,38.74778836386087,-9.117672876718446,6223.0,0.4314639241523381,0.0671701751566768,0.0001606941989394,0.1549092077775992,0.0591354652097059,0.0376024425518238,0.0,0.1100755262735015,0.0433874337136429,0.0960951309657721,6223.0,11.0,0,Vegetarians
1611,Laura Ward,0,71,1.0,0.0,1.0,1.0,2790.0,378.0,17.0,1119.0,344.0,29.0,2.0,1.0,471.0,73.0,540.0,203.0,0.0172996847365635,2009.0,1,38.74689736759041,-9.135691105059037,5747.0,0.4854706803549678,0.0657734470158343,0.0001740038280842,0.1947102836262397,0.0598573168609709,0.0050461110144423,0.0003480076561684,0.0819558030276666,0.0127022794501479,0.0939620671654776,5747.0,15.0,2,Vegetarians
8581,Rebecca Newman,0,33,1.0,1.0,1.0,1.0,2472.0,44.0,14.0,906.0,337.0,37.0,1.0,1.0,830.0,97.0,526.0,135.0,0.2676119706618747,2011.0,1,38.746463650346456,-9.158258918712056,5251.0,0.4707674728623119,0.0083793563130832,0.0001904399162064,0.1725385640830318,0.0641782517615692,0.0070462768996381,0.0001904399162064,0.1580651304513426,0.0184726718720243,0.1001713959245858,5251.0,13.0,2,Vegetarians
27553,Maria Lifford,0,42,1.0,1.0,0.0,2.0,3298.0,574.0,9.0,867.0,384.0,81.0,0.0,0.0,554.0,235.0,568.0,148.0,0.1793923115076924,2012.0,0,38.76007702503693,-9.184414398929103,6561.0,0.5026672763298278,0.0874866636183508,0.0,0.1321444901691815,0.058527663465935,0.0123456790123456,0.0,0.0844383478128334,0.03581771071483,0.0865721688766956,3280.5,12.0,0,Vegetarians
1848,Colleen Eubanks,0,45,1.0,0.0,1.0,1.0,3526.0,64.0,13.0,1229.0,320.0,34.0,1.0,0.0,187.0,219.0,448.0,168.0,0.2379792629039713,2009.0,1,38.71112338432723,-9.166164614556472,6028.0,0.5849369608493696,0.0106171201061712,0.0,0.2038818845388188,0.053085600530856,0.0056403450564034,0.0001658925016589,0.0310218978102189,0.0363304578633045,0.0743198407431984,6028.0,15.0,3,Vegetarians
39324,Monique Roth,0,43,1.0,1.0,1.0,2.0,3131.0,13.0,12.0,979.0,266.0,56.0,0.0,0.0,414.0,301.0,438.0,213.0,0.1652716035076578,2010.0,0,38.74022291025409,-9.125375667022428,5598.0,0.5593068953197571,0.0023222579492675,0.0,0.1748838871025366,0.0475169703465523,0.0100035727045373,0.0,0.0739549839228295,0.0537692032868881,0.0782422293676313,2799.0,14.0,0,Vegetarians
15222,Patricia Smith,0,47,1.0,1.0,0.0,1.0,2923.0,230.0,13.0,1185.0,137.0,135.0,1.0,0.0,491.0,131.0,627.0,213.0,0.132013176572121,2018.0,1,38.74063584683572,-9.14456188145969,5860.0,0.4988054607508532,0.0392491467576791,0.0,0.2022184300341297,0.0233788395904436,0.023037542662116,0.0001706484641638,0.0837883959044368,0.0223549488054607,0.1069965870307167,5860.0,6.0,3,Vegetarians
44281,Jasmine Rogers,0,43,1.0,0.0,0.0,1.0,3709.0,167.0,11.4,897.0,192.0,158.0,1.0,1.0,457.0,323.0,434.0,246.0,0.2804097944366116,2010.0,0,38.745731627894536,-9.162209750323962,6339.0,0.5851080612083925,0.0263448493453226,0.0001577535888941,0.1415049692380501,0.0302886890676762,0.0249250670452752,0.0001577535888941,0.0720933901246253,0.0509544092128095,0.0684650575800599,6339.0,14.0,0,Vegetarians
11229,Estelle Edwards,0,70,1.0,0.0,1.0,2.0,2691.0,1108.0,13.0,1311.0,265.0,346.0,0.0,1.0,503.0,234.0,796.0,178.0,0.1442695978460648,2009.0,1,38.7498186403191,-9.174406351114804,7255.0,0.3709166092350103,0.1527222605099931,0.0001378359751895,0.1807029634734665,0.0365265334252239,0.0476912474155754,0.0,0.0693314955203308,0.0322536181943487,0.1097174362508614,3627.5,15.0,2,Vegetarians
12833,Jason Perez,1,57,1.0,1.0,1.0,1.0,2735.0,1050.0,12.0,1102.0,224.0,258.0,2.0,1.0,409.0,195.0,558.0,304.0,0.278937068742244,2018.0,1,38.7251043631889,-9.120908902464896,6534.0,0.4185797367615549,0.1606978879706152,0.000153045607591,0.1686562595653504,0.0342822161003979,0.039485766758494,0.0003060912151821,0.0625956535047444,0.0298438934802571,0.0853994490358126,6534.0,6.0,3,Vegetarians
20698,Phyllis Kenny,0,74,1.0,1.0,0.0,1.0,3587.0,320.0,11.0,1324.0,297.0,43.0,1.0,0.0,395.0,201.0,483.0,209.0,0.3351930522430625,2011.0,1,38.71815682614332,-9.156554224100116,6651.0,0.5393173958803188,0.0481130657044053,0.0,0.1990678093519771,0.0446549391069012,0.0064651932040294,0.0001503533303262,0.0593895654788753,0.0302210193955796,0.0726206585475868,6651.0,13.0,0,Vegetarians
537,Jose Leblanc,1,68,1.0,0.0,0.0,1.0,3454.0,531.0,12.0,1207.0,312.0,85.0,0.0,0.0,443.0,26.0,662.0,228.0,0.2234576198993981,2011.0,1,38.74238543503471,-9.126731018833286,6720.0,0.5139880952380952,0.0790178571428571,0.0,0.1796130952380952,0.0464285714285714,0.0126488095238095,0.0,0.065922619047619,0.0038690476190476,0.0985119047619047,6720.0,13.0,2,Vegetarians
26653,Mario Sanford,1,55,1.0,1.0,1.0,1.0,2812.0,318.0,16.0,817.0,463.0,191.0,3.0,1.0,849.0,221.0,532.0,104.0,0.2692556273992542,2007.0,0,38.71915197515088,-9.144487335127543,6207.0,0.4530368938295472,0.0512324794586756,0.0001611084259706,0.1316255840180441,0.074593201224424,0.0307717093603995,0.000483325277912,0.1367810536491058,0.0356049621395199,0.0857096826164008,6207.0,17.0,0,Vegetarians
26847,Katherine Mercer,0,36,1.0,0.0,0.0,1.0,2246.0,781.0,13.0,1158.0,396.0,1.0,0.0,0.0,409.0,364.0,706.0,37.0,0.0869812633998846,2011.0,0,38.7325016198691,-9.164441757690971,6061.0,0.370565913215641,0.1288566243194192,0.0,0.1910575812572182,0.0653357531760435,0.000164989275697,0.0,0.0674806137601056,0.060056096353737,0.1164824286421382,6061.0,13.0,0,Vegetarians
17018,Danny Moon,1,54,1.0,0.0,1.0,1.0,3449.0,255.0,15.0,1144.0,274.0,185.0,0.0,1.0,325.0,163.0,306.0,432.0,0.1849104009805921,2007.0,1,38.74717885353793,-9.116805532969211,6102.0,0.5652245165519502,0.0417895771878072,0.0001638806948541,0.1874795149131432,0.044903310390036,0.030317928548017,0.0,0.0532612258275975,0.0267125532612258,0.0501474926253687,6102.0,17.0,3,Vegetarians
22143,Maureen Liles,0,60,1.0,1.0,0.0,1.0,3070.0,1066.0,17.0,1080.0,373.0,83.0,0.0,2.0,219.0,337.0,396.0,144.0,0.280342060112224,2012.0,1,38.77992718823493,-9.157245361713944,6626.0,0.4633262903712647,0.1608813763960156,0.0003018412315122,0.1629942650166012,0.0562933896770298,0.0125264111077573,0.0,0.0330516148505885,0.0508602475098098,0.0597645638394204,6626.0,12.0,0,Vegetarians
14630,Thomas Young,1,73,1.0,0.0,0.0,1.0,2716.0,965.0,14.0,1307.0,395.0,150.0,1.0,0.0,643.0,138.0,358.0,271.0,0.0278121826807677,2013.0,1,38.774035067762,-9.12382983465016,6673.0,0.4070133373295369,0.1446126180128877,0.0,0.1958639292671961,0.0591937659223737,0.0224786452869773,0.0001498576352465,0.0963584594635096,0.0206803536640191,0.0536490334182526,6673.0,11.0,1,Vegetarians
40747,John Selleck,1,66,1.0,0.0,1.0,1.0,2996.0,612.0,17.0,950.0,347.0,75.0,1.0,0.0,310.0,322.0,602.0,238.0,0.093122548472246,2014.0,0,38.76760312930495,-9.12226574421226,6215.0,0.482059533386967,0.0984714400643604,0.0,0.1528559935639581,0.0558326629123089,0.0120675784392598,0.0001609010458567,0.0498793242156074,0.0518101367658889,0.0968624296057924,6215.0,10.0,0,Vegetarians
29322,Ulysses Sanchez,1,45,1.0,0.0,0.0,1.0,3556.0,290.0,17.0,805.0,194.0,254.0,1.0,1.0,555.0,177.0,600.0,119.0,0.154253415401404,2016.0,0,38.72183094683978,-9.166601839822622,6433.0,0.5527747551686616,0.0450800559614487,0.0001554484688325,0.1251360174102285,0.0301570029535209,0.0394839110834758,0.0001554484688325,0.086273900202083,0.027514378983367,0.0932690812995492,6433.0,8.0,0,Vegetarians
1124,Katherine Peters,0,72,1.0,0.0,0.0,1.0,3439.0,647.0,6.0,906.0,344.0,124.0,0.0,0.0,894.0,189.0,613.0,419.0,0.2596077570998003,2012.0,1,38.78497592004626,-9.142778723411936,7156.0,0.4805757406372275,0.0904136389044158,0.0,0.1266070430408049,0.048071548351034,0.0173281162660704,0.0,0.1249301285634432,0.026411403018446,0.0856623812185578,7156.0,12.0,2,Vegetarians
1140,Luigi Shuman,1,74,1.0,1.0,1.0,1.0,2577.0,27.0,17.0,1076.0,471.0,201.0,1.0,2.0,548.0,288.0,477.0,42.0,0.1808110380346468,2008.0,1,38.72486812742082,-9.172404978147068,5668.0,0.4546577275935074,0.0047635850388143,0.0003528581510232,0.1898376852505293,0.0830980945659844,0.0354622441778405,0.0001764290755116,0.096683133380381,0.0508115737473535,0.0841566690190543,5668.0,16.0,2,Vegetarians
32687,Robert Miller,1,80,1.0,1.0,0.0,1.0,3080.0,392.0,18.0,1035.0,357.0,332.0,0.0,2.0,577.0,195.0,598.0,155.0,0.1575330702272857,2009.0,0,38.73631369858196,-9.160382008311204,6568.0,0.4689403166869671,0.0596833130328867,0.0003045066991473,0.1575822168087698,0.0543544457978075,0.0505481120584652,0.0,0.0878501827040195,0.0296894031668696,0.091047503045067,6568.0,15.0,0,Vegetarians
24477,Gwendolyn Grimmer,0,28,1.0,1.0,1.0,1.0,3893.0,28.0,17.0,1059.0,264.0,40.0,1.0,0.0,509.0,374.0,420.0,76.0,0.2215669350843846,2019.0,1,38.77699025000881,-9.124607600475784,6588.0,0.590922890103218,0.0042501517911353,0.0,0.1607468123861566,0.0400728597449908,0.0060716454159077,0.0001517911353976,0.0772616879174256,0.0567698846387371,0.0637522768670309,6588.0,5.0,0,Vegetarians
3280,Jennifer Banks,0,84,1.0,0.0,0.0,1.0,2911.0,509.0,17.0,1047.0,321.0,109.0,1.0,0.0,658.0,105.0,494.0,308.0,0.2640936152005529,2013.0,1,38.70777732655379,-9.168197724906516,6155.0,0.472948822095857,0.0826969943135662,0.0,0.1701056051990251,0.0521527213647441,0.0177091795288383,0.0001624695369618,0.1069049553208773,0.017059301380991,0.0802599512591389,6155.0,11.0,2,Vegetarians
37943,Kevin Hermes,1,32,1.0,0.0,0.0,2.0,5603.0,99.0,23.0,799.0,223.0,318.0,0.0,0.0,578.0,123.0,369.0,141.0,0.1606183980537814,2015.0,0,38.729647699008886,-9.155593622581966,8112.0,0.6907051282051282,0.0122041420118343,0.0,0.0984960552268244,0.0274901380670611,0.0392011834319526,0.0,0.0712524654832347,0.0151627218934911,0.0454881656804733,4056.0,9.0,0,Vegetarians
